[{"id":"paravet-cg0","type":"paravet","name":"Geeta Mishra Devi","phone":"916209277747","email":"geeta.mishra6@vetmail.in","qualification":"Certificate in Livestock Health Worker (LHW)","college":"Rajasthan University of Veterinary Sciences","licenseBody":"State Animal Husbandry Dept","registrationNumber":"PV/CG/2022/12659","village":"Mohanpur","city":"Indore","district":"Lucknow","state":"Chhattisgarh","stateCode":"CG","lat":19.77409,"lng":81.90252,"yearsExperience":23,"languages":["hi","en"],"available":true},{"id":"paravet-cg1","type":"paravet","name":"Dr. Lakshmi Devi","phone":"918760724186","email":"lakshmi.devi77@vetmail.in","qualification":"BVSc & AH (Paravet extension)","college":"LUVAS Hisar","licenseBody":"State Animal Husbandry Dept","registrationNumber":"PV/CG/2022/21936","village":"Kheri Kalan","city":"Mysuru","district":"Kanpur","state":"Chhattisgarh","stateCode":"CG","lat":21.40593,"lng":80.98864,"yearsExperience":7,"languages":["hi","en"],"available":true},{"id":"vet-cg2","type":"vet","name":"Dr. Ravi Kaur","phone":"918292523905","email":"ravi.kaur16@vetmail.in","qualification":"BVSc & AH, MVSc (Surgery)","college":"MAFSU Nagpur","licenseBody":"Veterinary Council of India","registrationNumber":"VCI/CG/2014/63866","village":"Kishanpur Nagar","city":"Guwahati","district":"Rajkot Rural","state":"Chhattisgarh","stateCode":"CG","lat":20.52945,"lng":79.60844,"yearsExperience":14,"languages":["hi","en"],"available":true},{"id":"paravet-cg3","type":"paravet","name":"Dr. Suman Joshi","phone":"916942527210","email":"suman.joshi41@vetmail.in","qualification":"NDDB AI Technician + Animal Health","college":"GBPUAT Pantnagar","licenseBody":"State Animal Husbandry Dept","registrationNumber":"PV/CG/2014/53859","village":"Khurd","city":"Meerut","district":"Lucknow","state":"Chhattisgarh","stateCode":"CG","lat":19.89244,"lng":83.36662,"yearsExperience":2,"languages":["hi","en"],"available":false},{"id":"paravet-cg4","type":"paravet","name":"Dr. Vijay Sharma","phone":"919168530531","email":"vijay.sharma48@vetmail.in","qualification":"BVSc & AH (Paravet extension)","college":"OUAT Bhubaneswar","licenseBody":"State Animal Husbandry Dept","registrationNumber":"PV/CG/2016/56149","village":"Khurd Nagar","city":"Kanpur","district":"Kanpur Rural","state":"Chhattisgarh","stateCode":"CG","lat":22.09113,"lng":80.14731,"yearsExperience":10,"languages":["hi","en"],"available":true},{"id":"paravet-cg5","type":"paravet","name":"Dr. Anita Yadav","phone":"917767964799","email":"anita.yadav23@vetmail.in","qualification":"Diploma in Animal Husbandry (DAH)","college":"OUAT Bhubaneswar","licenseBody":"State Animal Husbandry Dept","registrationNumber":"PV/CG/2015/50572","village":"Sitapur Khurd","city":"Bhopal","district":"Patna","state":"Chhattisgarh","stateCode":"CG","lat":22.05101,"lng":81.95518,"yearsExperience":4,"languages":["hi"],"available":true},{"id":"paravet-cg6","type":"paravet","name":"Dr. Vijay Singh","phone":"916778546063","email":"vijay.singh85@vetmail.in","qualification":"Diploma in Animal Husbandry (DAH)","college":"GBPUAT Pantnagar","licenseBody":"State Animal Husbandry Dept","registrationNumber":"PV/CG/2022/91690","village":"Ramnagar Khurd","city":"Mysuru","district":"Kanpur District","state":"Chhattisgarh","stateCode":"CG","lat":20.99616,"lng":81.18129,"yearsExperience":18,"languages":["hi"],"available":true},{"id":"paravet-cg7","type":"paravet","name":"Dr. Rekha Kumar","phone":"916895848233","email":"rekha.kumar50@vetmail.in","qualification":"NDDB AI Technician + Animal Health","college":"AAU Anand","licenseBody":"State Animal Husbandry Dept","registrationNumber":"PV/CG/2014/62598","village":"Sitapur Kalan","city":"Madurai","district":"Rajkot District","state":"Chhattisgarh","stateCode":"CG","lat":21.99064,"lng":82.60773,"yearsExperience":14,"languages":["hi"],"available":false},{"id":"vet-cg8","type":"vet","name":"Dr. Pooja Mehta","phone":"917906081384","email":"pooja.mehta32@vetmail.in","qualification":"BVSc & AH, MVSc (Medicine)","college":"GADVASU Ludhiana","licenseBody":"Veterinary Council of India","registrationNumber":"VCI/CG/2014/89582","village":"Lakhanpur","city":"Guwahati","district":"Jaipur District","state":"Chhattisgarh","stateCode":"CG","lat":19.36298,"lng":81.05408,"yearsExperience":1,"languages":["hi","en"],"available":true},{"id":"vet-cg9","type":"vet","name":"Dr. Neha Singh","phone":"917560651974","email":"neha.singh72@vetmail.in","qualification":"BVSc & AH, MVSc (Surgery)","college":"GADVASU Ludhiana","licenseBody":"Veterinary Council of India","registrationNumber":"VCI/CG/2020/84906","village":"Sultanpur Nagar","city":"Bhubaneswar","district":"Indore","state":"Chhattisgarh","stateCode":"CG","lat":21.09372,"lng":82.32538,"yearsExperience":11,"languages":["hi"],"available":true},{"id":"vet-cg10","type":"vet","name":"Dr. Suman Choudhary","phone":"916481878396","email":"suman.choudhary45@vetmail.in","qualification":"BVSc & AH, MVSc","college":"GBPUAT Pantnagar","licenseBody":"Veterinary Council of India","registrationNumber":"VCI/CG/2016/88904","village":"Rampur Khurd","city":"Madurai","district":"Bhubaneswar","state":"Chhattisgarh","stateCode":"CG","lat":23.38791,"lng":82.31666,"yearsExperience":11,"languages":["hi","en"],"available":true},{"id":"paravet-cg11","type":"paravet","name":"Dr. Rajesh Nair","phone":"918772843955","email":"rajesh.nair87@vetmail.in","qualification":"NDDB AI Technician + Animal Health","college":"KVAFSU Bidar","licenseBody":"State Animal Husbandry Dept","registrationNumber":"PV/CG/2012/28947","village":"Lakhanpur","city":"Nagpur","district":"Patna Rural","state":"Chhattisgarh","stateCode":"CG","lat":22.878,"lng":82.21587,"yearsExperience":2,"languages":["hi","en"],"available":true},{"id":"paravet-cg12","type":"paravet","name":"Dr. Manoj Thakur","phone":"917972586267","email":"manoj.thakur70@vetmail.in","qualification":"NDDB AI Technician + Animal Health","college":"Kerala Veterinary University","licenseBody":"State Animal Husbandry Dept","registrationNumber":"PV/CG/2012/15078","village":"Sultanpur","city":"Lucknow","district":"Bhopal Rural","state":"Chhattisgarh","stateCode":"CG","lat":21.18086,"lng":79.61124,"yearsExperience":4,"languages":["hi"],"available":false},{"id":"paravet-cg13","type":"paravet","name":"Dr. Radha Patel","phone":"919406579242","email":"radha.patel24@vetmail.in","qualification":"NDDB AI Technician + Animal Health","college":"KVAFSU Bidar","licenseBody":"State Animal Husbandry Dept","registrationNumber":"PV/CG/2010/63944","village":"Sultanpur","city":"Rajkot","district":"Bhubaneswar","state":"Chhattisgarh","stateCode":"CG","lat":20.61686,"lng":83.21878,"yearsExperience":6,"languages":["hi"],"available":true},{"id":"paravet-cg14","type":"paravet","name":"Dr. Suman Kumar","phone":"916386186396","email":"suman.kumar88@vetmail.in","qualification":"BVSc & AH (Paravet extension)","college":"DUVASU Mathura","licenseBody":"State Animal Husbandry Dept","registrationNumber":"PV/CG/2022/65315","village":null,"city":"Rajkot","district":"Lucknow District","state":"Chhattisgarh","stateCode":"CG","lat":19.62529,"lng":79.68446,"yearsExperience":1,"languages":["hi","en"],"available":true},{"id":"vet-cg15","type":"vet","name":"Dr. Kavita Gupta","phone":"917308354941","email":"kavita.gupta78@vetmail.in","qualification":"BVSc & AH, MVSc","college":"Assam Agricultural University","licenseBody":"Veterinary Council of India","registrationNumber":"VCI/CG/2020/27125","village":"Bajpur","city":"Indore","district":"Amritsar Rural","state":"Chhattisgarh","stateCode":"CG","lat":21.39769,"lng":81.53899,"yearsExperience":7,"languages":["hi"],"available":true},{"id":"paravet-cg16","type":"paravet","name":"Dr. Sunita Rao","phone":"917186762975","email":"sunita.rao34@vetmail.in","qualification":"NDDB AI Technician + Animal Health","college":"KVK Extension","licenseBody":"State Animal Husbandry Dept","registrationNumber":"PV/CG/2021/65398","village":"Nagar","city":"Hubballi","district":"Madurai","state":"Chhattisgarh","stateCode":"CG","lat":20.76194,"lng":83.27781,"yearsExperience":7,"languages":["hi","en"],"available":true},{"id":"paravet-cg17","type":"paravet","name":"Dr. Sarita Devi","phone":"917087017517","email":"sarita.devi55@vetmail.in","qualification":"Certificate in Livestock Health Worker (LHW)","college":"Bihar Veterinary College","licenseBody":"State Animal Husbandry Dept","registrationNumber":"PV/CG/2021/25383","village":"Kishanpur Kalan","city":"Bhubaneswar","district":"Mysuru","state":"Chhattisgarh","stateCode":"CG","lat":21.28304,"lng":82.00616,"yearsExperience":9,"languages":["hi"],"available":false},{"id":"paravet-cg18","type":"paravet","name":"Priya Kaur Devi","phone":"918411320249","email":"priya.kaur76@vetmail.in","qualification":"NDDB AI Technician + Animal Health","college":"AAU Anand","licenseBody":"State Animal Husbandry Dept","registrationNumber":"PV/CG/2022/15567","village":"Lakhanpur","city":"Meerut","district":"Rajkot District","state":"Chhattisgarh","stateCode":"CG","lat":20.20956,"lng":80.15438,"yearsExperience":13,"languages":["hi","en"],"available":true},{"id":"paravet-cg19","type":"paravet","name":"Dr. Pooja Joshi","phone":"917221718066","email":"pooja.joshi36@vetmail.in","qualification":"Diploma in Animal Husbandry (DAH)","college":"Kerala Veterinary University","licenseBody":"State Animal Husbandry Dept","registrationNumber":"PV/CG/2022/17966","village":"Bharatpur Khurd","city":"Rajkot","district":"Patna Rural","state":"Chhattisgarh","stateCode":"CG","lat":19.11991,"lng":82.29868,"yearsExperience":16,"languages":["hi"],"available":false},{"id":"paravet-cg20","type":"paravet","name":"Dr. Mohan Kumar","phone":"916813450347","email":"mohan.kumar38@vetmail.in","qualification":"NDDB AI Technician + Animal Health","college":"Rajasthan University of Veterinary Sciences","licenseBody":"State Animal Husbandry Dept","registrationNumber":"PV/CG/2023/81836","village":"Nandgaon Nagar","city":"Patna","district":"Ludhiana","state":"Chhattisgarh","stateCode":"CG","lat":19.23071,"lng":81.34504,"yearsExperience":6,"languages":["hi"],"available":true},{"id":"paravet-cg21","type":"paravet","name":"Dr. Arun Das","phone":"917033110181","email":"arun.das0@vetmail.in","qualification":"Diploma in Animal Husbandry (DAH)","college":"LUVAS Hisar","licenseBody":"State Animal Husbandry Dept","registrationNumber":"PV/CG/2011/33083","village":"Kishanpur Nagar","city":"Raipur","district":"Surat Rural","state":"Chhattisgarh","stateCode":"CG","lat":19.63953,"lng":81.15789,"yearsExperience":20,"languages":["hi","en"],"available":true},{"id":"vet-cg22","type":"vet","name":"Dr. Rekha Mehta","phone":"919801642370","email":"rekha.mehta84@vetmail.in","qualification":"BVSc & AH, MVSc (Surgery)","college":"LUVAS Hisar","licenseBody":"Veterinary Council of India","registrationNumber":"VCI/CG/2014/44473","village":"Chandpur Khurd","city":"Madurai","district":"Ahmedabad Rural","state":"Chhattisgarh","stateCode":"CG","lat":21.29383,"lng":80.12937,"yearsExperience":2,"languages":["hi"],"available":true},{"id":"paravet-cg23","type":"paravet","name":"Dr. Priya Reddy","phone":"916555195596","email":"priya.reddy1@vetmail.in","qualification":"Certificate in Livestock Health Worker (LHW)","college":"State AH Department Training","licenseBody":"State Animal Husbandry Dept","registrationNumber":"PV/CG/2016/49398","village":"Mohanpur Khurd","city":"Kanpur","district":"Hubballi Rural","state":"Chhattisgarh","stateCode":"CG","lat":22.5829,"lng":82.30528,"yearsExperience":12,"languages":["hi","en"],"available":true},{"id":"paravet-cg24","type":"paravet","name":"Dr. Mohan Sharma","phone":"919706061469","email":"mohan.sharma1@vetmail.in","qualification":"Certificate in Livestock Health Worker (LHW)","college":"Rajasthan University of Veterinary Sciences","licenseBody":"State Animal Husbandry Dept","registrationNumber":"PV/CG/2013/48213","village":"Devgarh Khurd","city":"Pune","district":"Mysuru District","state":"Chhattisgarh","stateCode":"CG","lat":22.40442,"lng":81.02041,"yearsExperience":14,"languages":["hi"],"available":true},{"id":"vet-cg25","type":"vet","name":"Pooja Singh Devi","phone":"916468141766","email":"pooja.singh70@vetmail.in","qualification":"BVSc & AH","college":"AAU Anand","licenseBody":"Veterinary Council of India","registrationNumber":"VCI/CG/2022/49102","village":"Khurd","city":"Ahmedabad","district":"Surat","state":"Chhattisgarh","stateCode":"CG","lat":22.36541,"lng":79.72103,"yearsExperience":18,"languages":["hi"],"available":false},{"id":"vet-cg26","type":"vet","name":"Dr. Lakshmi Rao","phone":"917503058525","email":"lakshmi.rao73@vetmail.in","qualification":"BVSc & AH, MVSc (Medicine)","college":"MAFSU Nagpur","licenseBody":"Veterinary Council of India","registrationNumber":"VCI/CG/2012/58862","village":"Devgarh Kalan","city":"Amritsar","district":"Bhopal","state":"Chhattisgarh","stateCode":"CG","lat":20.82232,"lng":82.65509,"yearsExperience":8,"languages":["hi","en"],"available":true},{"id":"paravet-cg27","type":"paravet","name":"Dr. Harish Mishra","phone":"919100943572","email":"harish.mishra89@vetmail.in","qualification":"Diploma in Animal Husbandry (DAH)","college":"AAU Anand","licenseBody":"State Animal Husbandry Dept","registrationNumber":"PV/CG/2021/21637","village":null,"city":"Bhubaneswar","district":"Bhubaneswar District","state":"Chhattisgarh","stateCode":"CG","lat":23.21891,"lng":82.37122,"yearsExperience":22,"languages":["hi","en"],"available":true},{"id":"vet-cg28","type":"vet","name":"Dr. Suresh Saini","phone":"916833247635","email":"suresh.saini6@vetmail.in","qualification":"BVSc & AH, MVSc (Medicine)","college":"AAU Anand","licenseBody":"Veterinary Council of India","registrationNumber":"VCI/CG/2012/84881","village":"Devgarh Kalan","city":"Indore","district":"Ranchi District","state":"Chhattisgarh","stateCode":"CG","lat":21.7872,"lng":79.92327,"yearsExperience":17,"languages":["hi","en"],"available":true},{"id":"paravet-cg29","type":"paravet","name":"Dr. Mohan Mishra","phone":"919529662310","email":"mohan.mishra27@vetmail.in","qualification":"Certificate in Livestock Health Worker (LHW)","college":"State AH Department Training","licenseBody":"State Animal Husbandry Dept","registrationNumber":"PV/CG/2017/60827","village":null,"city":"Ludhiana","district":"Mysuru Rural","state":"Chhattisgarh","stateCode":"CG","lat":21.04506,"lng":79.61215,"yearsExperience":11,"languages":["hi","en"],"available":true},{"id":"paravet-cg30","type":"paravet","name":"Dr. Pradeep Mishra","phone":"917948632185","email":"pradeep.mishra41@vetmail.in","qualification":"BVSc & AH (Paravet extension)","college":"MAFSU Nagpur","licenseBody":"State Animal Husbandry Dept","registrationNumber":"PV/CG/2010/24744","village":"Sitapur Kalan","city":"Amritsar","district":"Amritsar","state":"Chhattisgarh","stateCode":"CG","lat":22.00174,"lng":83.69503,"yearsExperience":8,"languages":["hi","en"],"available":true},{"id":"paravet-cg31","type":"paravet","name":"Neha Devi Devi","phone":"916740501523","email":"neha.devi80@vetmail.in","qualification":"BVSc & AH (Paravet extension)","college":"State AH Department Training","licenseBody":"State Animal Husbandry Dept","registrationNumber":"PV/CG/2015/19514","village":"Basantpur Nagar","city":"Hubballi","district":"Ranchi Rural","state":"Chhattisgarh","stateCode":"CG","lat":20.90386,"lng":83.17013,"yearsExperience":5,"languages":["hi"],"available":true},{"id":"paravet-cg32","type":"paravet","name":"Dr. Neha Kumar","phone":"917593511301","email":"neha.kumar4@vetmail.in","qualification":"Certificate in Livestock Health Worker (LHW)","college":"DUVASU Mathura","licenseBody":"State Animal Husbandry Dept","registrationNumber":"PV/CG/2016/98667","village":null,"city":"Indore","district":"Amritsar District","state":"Chhattisgarh","stateCode":"CG","lat":22.88057,"lng":81.03635,"yearsExperience":19,"languages":["hi"],"available":true},{"id":"paravet-cg33","type":"paravet","name":"Dr. Sunita Kaur","phone":"918005572240","email":"sunita.kaur22@vetmail.in","qualification":"NDDB AI Technician + Animal Health","college":"GADVASU Ludhiana","licenseBody":"State Animal Husbandry Dept","registrationNumber":"PV/CG/2018/34158","village":"Patti Nagar","city":"Lucknow","district":"Ludhiana","state":"Chhattisgarh","stateCode":"CG","lat":21.69327,"lng":83.00082,"yearsExperience":9,"languages":["hi","en"],"available":true},{"id":"paravet-cg34","type":"paravet","name":"Dr. Kavita Gupta","phone":"919681524374","email":"kavita.gupta34@vetmail.in","qualification":"BVSc & AH (Paravet extension)","college":"MAFSU Nagpur","licenseBody":"State Animal Husbandry Dept","registrationNumber":"PV/CG/2023/74419","village":"Devgarh Kalan","city":"Coimbatore","district":"Agra District","state":"Chhattisgarh","stateCode":"CG","lat":22.20817,"lng":79.68678,"yearsExperience":27,"languages":["hi"],"available":true},{"id":"paravet-cg35","type":"paravet","name":"Dr. Rekha Patel","phone":"918048275189","email":"rekha.patel89@vetmail.in","qualification":"BVSc & AH (Paravet extension)","college":"Kerala Veterinary University","licenseBody":"State Animal Husbandry Dept","registrationNumber":"PV/CG/2012/21384","village":"Bajpur Kalan","city":"Ranchi","district":"Surat","state":"Chhattisgarh","stateCode":"CG","lat":23.35766,"lng":80.16892,"yearsExperience":6,"languages":["hi","en"],"available":true},{"id":"paravet-cg36","type":"paravet","name":"Dr. Harish Reddy","phone":"917876838147","email":"harish.reddy66@vetmail.in","qualification":"NDDB AI Technician + Animal Health","college":"Bihar Veterinary College","licenseBody":"State Animal Husbandry Dept","registrationNumber":"PV/CG/2023/66962","village":"Bharatpur Kalan","city":"Indore","district":"Coimbatore","state":"Chhattisgarh","stateCode":"CG","lat":21.59916,"lng":81.52761,"yearsExperience":3,"languages":["hi","en"],"available":true},{"id":"paravet-cg37","type":"paravet","name":"Dr. Rekha Mehta","phone":"919419252941","email":"rekha.mehta22@vetmail.in","qualification":"Diploma in Animal Husbandry (DAH)","college":"KVK Extension","licenseBody":"State Animal Husbandry Dept","registrationNumber":"PV/CG/2022/77781","village":"Kalan","city":"Rajkot","district":"Jaipur District","state":"Chhattisgarh","stateCode":"CG","lat":21.21273,"lng":83.5497,"yearsExperience":5,"languages":["hi"],"available":true},{"id":"paravet-cg38","type":"paravet","name":"Dr. Suresh Mishra","phone":"917854238981","email":"suresh.mishra11@vetmail.in","qualification":"NDDB AI Technician + Animal Health","college":"Assam Agricultural University","licenseBody":"State Animal Husbandry Dept","registrationNumber":"PV/CG/2019/86051","village":"Bharatpur Nagar","city":"Rajkot","district":"Lucknow Rural","state":"Chhattisgarh","stateCode":"CG","lat":21.81965,"lng":82.51479,"yearsExperience":9,"languages":["hi"],"available":true},{"id":"vet-cg39","type":"vet","name":"Dr. Ravi Devi","phone":"919917855736","email":"ravi.devi16@vetmail.in","qualification":"BVSc & AH, MVSc","college":"GBPUAT Pantnagar","licenseBody":"Veterinary Council of India","registrationNumber":"VCI/CG/2020/56369","village":null,"city":"Hubballi","district":"Indore Rural","state":"Chhattisgarh","stateCode":"CG","lat":19.58601,"lng":83.10099,"yearsExperience":21,"languages":["hi"],"available":true},{"id":"paravet-cg40","type":"paravet","name":"Dr. Sarita Kumar","phone":"916839779546","email":"sarita.kumar25@vetmail.in","qualification":"Diploma in Animal Husbandry (DAH)","college":"GBPUAT Pantnagar","licenseBody":"State Animal Husbandry Dept","registrationNumber":"PV/CG/2017/77017","village":"Sultanpur","city":"Madurai","district":"Lucknow Rural","state":"Chhattisgarh","stateCode":"CG","lat":20.87613,"lng":83.64704,"yearsExperience":7,"languages":["hi","en"],"available":true},{"id":"vet-cg41","type":"vet","name":"Dr. Pradeep Sharma","phone":"919599641600","email":"pradeep.sharma74@vetmail.in","qualification":"BVSc & AH","college":"OUAT Bhubaneswar","licenseBody":"Veterinary Council of India","registrationNumber":"VCI/CG/2023/95730","village":"Ramnagar Khurd","city":"Ahmedabad","district":"Ludhiana District","state":"Chhattisgarh","stateCode":"CG","lat":23.24186,"lng":79.41999,"yearsExperience":1,"languages":["hi","en"],"available":true},{"id":"vet-cg42","type":"vet","name":"Dr. Radha Nair","phone":"918498076300","email":"radha.nair90@vetmail.in","qualification":"BVSc & AH, MVSc (Medicine)","college":"DUVASU Mathura","licenseBody":"Veterinary Council of India","registrationNumber":"VCI/CG/2017/68582","village":"Kalan Khurd","city":"Nagpur","district":"Bhubaneswar Rural","state":"Chhattisgarh","stateCode":"CG","lat":22.61073,"lng":81.24833,"yearsExperience":13,"languages":["hi"],"available":true},{"id":"vet-cg43","type":"vet","name":"Dr. Ashok Joshi","phone":"918866212137","email":"ashok.joshi12@vetmail.in","qualification":"BVSc & AH, MVSc (Surgery)","college":"IVRI Bareilly","licenseBody":"Veterinary Council of India","registrationNumber":"VCI/CG/2019/45961","village":"Bajpur","city":"Nagpur","district":"Ludhiana District","state":"Chhattisgarh","stateCode":"CG","lat":21.41546,"lng":80.94389,"yearsExperience":28,"languages":["hi"],"available":true},{"id":"vet-cg44","type":"vet","name":"Dr. Deepak Patel","phone":"918771633233","email":"deepak.patel45@vetmail.in","qualification":"BVSc & AH, MVSc (Surgery)","college":"TANUVAS Chennai","licenseBody":"Veterinary Council of India","registrationNumber":"VCI/CG/2013/62710","village":"Devgarh","city":"Rajkot","district":"Indore","state":"Chhattisgarh","stateCode":"CG","lat":20.86156,"lng":80.50528,"yearsExperience":8,"languages":["hi","en"],"available":true},{"id":"paravet-cg45","type":"paravet","name":"Dr. Vinod Joshi","phone":"919585122232","email":"vinod.joshi8@vetmail.in","qualification":"Certificate in Livestock Health Worker (LHW)","college":"Kerala Veterinary University","licenseBody":"State Animal Husbandry Dept","registrationNumber":"PV/CG/2013/74660","village":"Mohanpur","city":"Indore","district":"Amritsar District","state":"Chhattisgarh","stateCode":"CG","lat":22.05908,"lng":79.59428,"yearsExperience":19,"languages":["hi"],"available":true},{"id":"vet-cg46","type":"vet","name":"Sunita Choudhary Devi","phone":"919862136501","email":"sunita.choudhary40@vetmail.in","qualification":"BVSc & AH, MVSc","college":"LUVAS Hisar","licenseBody":"Veterinary Council of India","registrationNumber":"VCI/CG/2021/14572","village":"Kalan","city":"Pune","district":"Madurai","state":"Chhattisgarh","stateCode":"CG","lat":21.19552,"lng":80.21002,"yearsExperience":8,"languages":["hi","en"],"available":true},{"id":"paravet-cg47","type":"paravet","name":"Dr. Dinesh Kaur","phone":"916567583356","email":"dinesh.kaur84@vetmail.in","qualification":"NDDB AI Technician + Animal Health","college":"WBUAFS Kolkata","licenseBody":"State Animal Husbandry Dept","registrationNumber":"PV/CG/2019/15525","village":null,"city":"Varanasi","district":"Patna District","state":"Chhattisgarh","stateCode":"CG","lat":20.10547,"lng":83.48107,"yearsExperience":26,"languages":["hi"],"available":true},{"id":"paravet-cg48","type":"paravet","name":"Dr. Kavita Rao","phone":"919517635665","email":"kavita.rao60@vetmail.in","qualification":"Certificate in Livestock Health Worker (LHW)","college":"State AH Department Training","licenseBody":"State Animal Husbandry Dept","registrationNumber":"PV/CG/2023/75869","village":"Chandpur Kalan","city":"Hubballi","district":"Patna Rural","state":"Chhattisgarh","stateCode":"CG","lat":20.90752,"lng":80.5948,"yearsExperience":14,"languages":["hi","en"],"available":true},{"id":"paravet-cg49","type":"paravet","name":"Dr. Gopal Mishra","phone":"916918827122","email":"gopal.mishra69@vetmail.in","qualification":"Certificate in Livestock Health Worker (LHW)","college":"IVRI Bareilly","licenseBody":"State Animal Husbandry Dept","registrationNumber":"PV/CG/2017/25156","village":null,"city":"Jaipur","district":"Amritsar District","state":"Chhattisgarh","stateCode":"CG","lat":20.64649,"lng":79.97207,"yearsExperience":6,"languages":["hi","en"],"available":true},{"id":"paravet-cg50","type":"paravet","name":"Dr. Ravi Gupta","phone":"916531693912","email":"ravi.gupta53@vetmail.in","qualification":"Certificate in Livestock Health Worker (LHW)","college":"Assam Agricultural University","licenseBody":"State Animal Husbandry Dept","registrationNumber":"PV/CG/2012/95186","village":"Chandpur","city":"Bhubaneswar","district":"Agra District","state":"Chhattisgarh","stateCode":"CG","lat":22.26037,"lng":79.70985,"yearsExperience":9,"languages":["hi","en"],"available":true},{"id":"vet-cg51","type":"vet","name":"Dr. Amit Reddy","phone":"918037008937","email":"amit.reddy72@vetmail.in","qualification":"BVSc & AH, MVSc (Medicine)","college":"Assam Agricultural University","licenseBody":"Veterinary Council of India","registrationNumber":"VCI/CG/2013/61490","village":"Kalan Khurd","city":"Meerut","district":"Patna","state":"Chhattisgarh","stateCode":"CG","lat":23.011,"lng":81.36632,"yearsExperience":3,"languages":["hi"],"available":true},{"id":"vet-cg52","type":"vet","name":"Dr. Sunita Singh","phone":"917003214578","email":"sunita.singh98@vetmail.in","qualification":"BVSc & AH, MVSc","college":"GBPUAT Pantnagar","licenseBody":"Veterinary Council of India","registrationNumber":"VCI/CG/2014/91268","village":"Govindpur Khurd","city":"Jaipur","district":"Ludhiana Rural","state":"Chhattisgarh","stateCode":"CG","lat":21.33024,"lng":81.68341,"yearsExperience":14,"languages":["hi","en"],"available":true},{"id":"paravet-cg53","type":"paravet","name":"Dr. Sanjay Das","phone":"919533481095","email":"sanjay.das64@vetmail.in","qualification":"NDDB AI Technician + Animal Health","college":"MAFSU Nagpur","licenseBody":"State Animal Husbandry Dept","registrationNumber":"PV/CG/2011/69822","village":"Shivpuri Kalan","city":"Rajkot","district":"Patna District","state":"Chhattisgarh","stateCode":"CG","lat":21.40065,"lng":82.17449,"yearsExperience":5,"languages":["hi"],"available":true},{"id":"paravet-cg54","type":"paravet","name":"Dr. Geeta Rao","phone":"916036888478","email":"geeta.rao30@vetmail.in","qualification":"BVSc & AH (Paravet extension)","college":"State AH Department Training","licenseBody":"State Animal Husbandry Dept","registrationNumber":"PV/CG/2021/25263","village":"Ramnagar Khurd","city":"Raipur","district":"Lucknow District","state":"Chhattisgarh","stateCode":"CG","lat":23.46084,"lng":82.75995,"yearsExperience":21,"languages":["hi","en"],"available":true},{"id":"paravet-cg55","type":"paravet","name":"Dr. Ravi Das","phone":"919997208283","email":"ravi.das17@vetmail.in","qualification":"BVSc & AH (Paravet extension)","college":"IVRI Bareilly","licenseBody":"State Animal Husbandry Dept","registrationNumber":"PV/CG/2010/21805","village":"Sitapur Kalan","city":"Amritsar","district":"Bhubaneswar District","state":"Chhattisgarh","stateCode":"CG","lat":23.02215,"lng":82.52896,"yearsExperience":28,"languages":["hi"],"available":true},{"id":"vet-cg56","type":"vet","name":"Dr. Gopal Choudhary","phone":"916304560572","email":"gopal.choudhary98@vetmail.in","qualification":"BVSc & AH","college":"OUAT Bhubaneswar","licenseBody":"Veterinary Council of India","registrationNumber":"VCI/CG/2023/95427","village":null,"city":"Bhubaneswar","district":"Coimbatore District","state":"Chhattisgarh","stateCode":"CG","lat":20.04977,"lng":81.43866,"yearsExperience":2,"languages":["hi","en"],"available":true},{"id":"paravet-cg57","type":"paravet","name":"Dr. Harish Nair","phone":"918676740966","email":"harish.nair64@vetmail.in","qualification":"NDDB AI Technician + Animal Health","college":"DUVASU Mathura","licenseBody":"State Animal Husbandry Dept","registrationNumber":"PV/CG/2020/12112","village":null,"city":"Ludhiana","district":"Varanasi District","state":"Chhattisgarh","stateCode":"CG","lat":22.24064,"lng":81.33624,"yearsExperience":7,"languages":["hi","en"],"available":true},{"id":"paravet-cg58","type":"paravet","name":"Dr. Neha Gupta","phone":"919297796192","email":"neha.gupta18@vetmail.in","qualification":"BVSc & AH (Paravet extension)","college":"OUAT Bhubaneswar","licenseBody":"State Animal Husbandry Dept","registrationNumber":"PV/CG/2011/94423","village":"Sonpur","city":"Nagpur","district":"Meerut","state":"Chhattisgarh","stateCode":"CG","lat":19.47896,"lng":79.87555,"yearsExperience":12,"languages":["hi","en"],"available":true},{"id":"vet-cg59","type":"vet","name":"Dr. Sarita Choudhary","phone":"919863571272","email":"sarita.choudhary65@vetmail.in","qualification":"BVSc & AH, MVSc (Medicine)","college":"Bihar Veterinary College","licenseBody":"Veterinary Council of India","registrationNumber":"VCI/CG/2021/48405","village":null,"city":"Rajkot","district":"Kanpur District","state":"Chhattisgarh","stateCode":"CG","lat":21.18772,"lng":81.05086,"yearsExperience":10,"languages":["hi","en"],"available":true},{"id":"vet-cg60","type":"vet","name":"Dr. Sarita Mishra","phone":"919654110587","email":"sarita.mishra12@vetmail.in","qualification":"BVSc & AH, MVSc","college":"TANUVAS Chennai","licenseBody":"Veterinary Council of India","registrationNumber":"VCI/CG/2015/24963","village":"Krishnapur Kalan","city":"Varanasi","district":"Indore","state":"Chhattisgarh","stateCode":"CG","lat":21.22496,"lng":80.51783,"yearsExperience":8,"languages":["hi","en"],"available":true},{"id":"paravet-cg61","type":"paravet","name":"Dr. Rekha Rao","phone":"916810252389","email":"rekha.rao2@vetmail.in","qualification":"NDDB AI Technician + Animal Health","college":"LUVAS Hisar","licenseBody":"State Animal Husbandry Dept","registrationNumber":"PV/CG/2019/82276","village":"Shivpuri Nagar","city":"Meerut","district":"Jaipur","state":"Chhattisgarh","stateCode":"CG","lat":21.12666,"lng":80.15486,"yearsExperience":26,"languages":["hi"],"available":true},{"id":"vet-cg62","type":"vet","name":"Dr. Ravi Saini","phone":"917179650871","email":"ravi.saini17@vetmail.in","qualification":"BVSc & AH","college":"GBPUAT Pantnagar","licenseBody":"Veterinary Council of India","registrationNumber":"VCI/CG/2021/60089","village":"Bharatpur","city":"Patna","district":"Surat","state":"Chhattisgarh","stateCode":"CG","lat":22.57894,"lng":81.08594,"yearsExperience":6,"languages":["hi"],"available":false},{"id":"paravet-cg63","type":"paravet","name":"Dr. Priya Das","phone":"918494996845","email":"priya.das38@vetmail.in","qualification":"Diploma in Animal Husbandry (DAH)","college":"AAU Anand","licenseBody":"State Animal Husbandry Dept","registrationNumber":"PV/CG/2015/61262","village":null,"city":"Mysuru","district":"Mysuru","state":"Chhattisgarh","stateCode":"CG","lat":20.84245,"lng":80.11071,"yearsExperience":18,"languages":["hi"],"available":true},{"id":"paravet-cg64","type":"paravet","name":"Dr. Vijay Pandey","phone":"918982957965","email":"vijay.pandey92@vetmail.in","qualification":"NDDB AI Technician + Animal Health","college":"Bihar Veterinary College","licenseBody":"State Animal Husbandry Dept","registrationNumber":"PV/CG/2023/75193","village":"Mohanpur Khurd","city":"Nagpur","district":"Ranchi","state":"Chhattisgarh","stateCode":"CG","lat":20.44495,"lng":79.71759,"yearsExperience":26,"languages":["hi","en"],"available":true},{"id":"paravet-cg65","type":"paravet","name":"Dr. Rekha Thakur","phone":"916791088278","email":"rekha.thakur56@vetmail.in","qualification":"BVSc & AH (Paravet extension)","college":"GBPUAT Pantnagar","licenseBody":"State Animal Husbandry Dept","registrationNumber":"PV/CG/2013/50612","village":"Lakhanpur Nagar","city":"Patna","district":"Jaipur District","state":"Chhattisgarh","stateCode":"CG","lat":22.35354,"lng":81.70019,"yearsExperience":4,"languages":["hi","en"],"available":true},{"id":"paravet-cg66","type":"paravet","name":"Dr. Neha Joshi","phone":"919953646257","email":"neha.joshi39@vetmail.in","qualification":"Certificate in Livestock Health Worker (LHW)","college":"KVAFSU Bidar","licenseBody":"State Animal Husbandry Dept","registrationNumber":"PV/CG/2021/86580","village":null,"city":"Coimbatore","district":"Coimbatore Rural","state":"Chhattisgarh","stateCode":"CG","lat":19.2126,"lng":81.49339,"yearsExperience":20,"languages":["hi","en"],"available":false},{"id":"paravet-cg67","type":"paravet","name":"Dr. Vinod Saini","phone":"917448345919","email":"vinod.saini71@vetmail.in","qualification":"Diploma in Animal Husbandry (DAH)","college":"WBUAFS Kolkata","licenseBody":"State Animal Husbandry Dept","registrationNumber":"PV/CG/2016/89205","village":null,"city":"Pune","district":"Jaipur Rural","state":"Chhattisgarh","stateCode":"CG","lat":19.03876,"lng":80.99591,"yearsExperience":10,"languages":["hi","en"],"available":true},{"id":"paravet-cg68","type":"paravet","name":"Dr. Sunita Mishra","phone":"918478063906","email":"sunita.mishra31@vetmail.in","qualification":"BVSc & AH (Paravet extension)","college":"OUAT Bhubaneswar","licenseBody":"State Animal Husbandry Dept","registrationNumber":"PV/CG/2016/48618","village":null,"city":"Agra","district":"Agra Rural","state":"Chhattisgarh","stateCode":"CG","lat":22.50692,"lng":82.46946,"yearsExperience":22,"languages":["hi"],"available":true},{"id":"paravet-cg69","type":"paravet","name":"Dr. Dinesh Devi","phone":"918317507634","email":"dinesh.devi67@vetmail.in","qualification":"BVSc & AH (Paravet extension)","college":"AAU Anand","licenseBody":"State Animal Husbandry Dept","registrationNumber":"PV/CG/2018/57553","village":null,"city":"Kanpur","district":"Pune District","state":"Chhattisgarh","stateCode":"CG","lat":20.28476,"lng":80.04623,"yearsExperience":7,"languages":["hi"],"available":true},{"id":"paravet-cg70","type":"paravet","name":"Dr. Pooja Rao","phone":"918493624604","email":"pooja.rao23@vetmail.in","qualification":"BVSc & AH (Paravet extension)","college":"Bihar Veterinary College","licenseBody":"State Animal Husbandry Dept","registrationNumber":"PV/CG/2022/72612","village":"Basantpur Khurd","city":"Rajkot","district":"Amritsar District","state":"Chhattisgarh","stateCode":"CG","lat":23.3315,"lng":80.09129,"yearsExperience":23,"languages":["hi"],"available":true},{"id":"paravet-cg71","type":"paravet","name":"Dr. Pradeep Choudhary","phone":"918339210970","email":"pradeep.choudhary6@vetmail.in","qualification":"Diploma in Animal Husbandry (DAH)","college":"KVK Extension","licenseBody":"State Animal Husbandry Dept","registrationNumber":"PV/CG/2017/37920","village":null,"city":"Surat","district":"Lucknow","state":"Chhattisgarh","stateCode":"CG","lat":20.31075,"lng":83.73379,"yearsExperience":8,"languages":["hi"],"available":true},{"id":"paravet-cg72","type":"paravet","name":"Sarita Das Devi","phone":"918169998206","email":"sarita.das77@vetmail.in","qualification":"NDDB AI Technician + Animal Health","college":"Rajasthan University of Veterinary Sciences","licenseBody":"State Animal Husbandry Dept","registrationNumber":"PV/CG/2016/70187","village":"Mohanpur Kalan","city":"Madurai","district":"Nagpur","state":"Chhattisgarh","stateCode":"CG","lat":21.73187,"lng":80.86711,"yearsExperience":13,"languages":["hi"],"available":true},{"id":"vet-cg73","type":"vet","name":"Dr. Gopal Kaur","phone":"917085862253","email":"gopal.kaur75@vetmail.in","qualification":"BVSc & AH, MVSc (Surgery)","college":"WBUAFS Kolkata","licenseBody":"Veterinary Council of India","registrationNumber":"VCI/CG/2017/78104","village":null,"city":"Ranchi","district":"Ranchi","state":"Chhattisgarh","stateCode":"CG","lat":20.64091,"lng":83.81117,"yearsExperience":17,"languages":["hi","en"],"available":true},{"id":"paravet-cg74","type":"paravet","name":"Dr. Amit Choudhary","phone":"916742553281","email":"amit.choudhary98@vetmail.in","qualification":"Diploma in Animal Husbandry (DAH)","college":"WBUAFS Kolkata","licenseBody":"State Animal Husbandry Dept","registrationNumber":"PV/CG/2010/13056","village":"Ramnagar Nagar","city":"Mysuru","district":"Varanasi Rural","state":"Chhattisgarh","stateCode":"CG","lat":20.92034,"lng":82.19903,"yearsExperience":7,"languages":["hi","en"],"available":true},{"id":"vet-cg75","type":"vet","name":"Dr. Harish Sharma","phone":"916864483932","email":"harish.sharma0@vetmail.in","qualification":"BVSc & AH, MVSc (Surgery)","college":"LUVAS Hisar","licenseBody":"Veterinary Council of India","registrationNumber":"VCI/CG/2010/89893","village":null,"city":"Indore","district":"Amritsar","state":"Chhattisgarh","stateCode":"CG","lat":22.04337,"lng":81.19634,"yearsExperience":20,"languages":["hi","en"],"available":true},{"id":"paravet-cg76","type":"paravet","name":"Dr. Kavita Kumar","phone":"916737762460","email":"kavita.kumar46@vetmail.in","qualification":"Certificate in Livestock Health Worker (LHW)","college":"KVAFSU Bidar","licenseBody":"State Animal Husbandry Dept","registrationNumber":"PV/CG/2012/95938","village":"Govindpur Kalan","city":"Nagpur","district":"Jaipur","state":"Chhattisgarh","stateCode":"CG","lat":19.31037,"lng":80.27767,"yearsExperience":28,"languages":["hi","en"],"available":true},{"id":"paravet-cg77","type":"paravet","name":"Dr. Sarita Pandey","phone":"918794501373","email":"sarita.pandey1@vetmail.in","qualification":"Diploma in Animal Husbandry (DAH)","college":"Assam Agricultural University","licenseBody":"State Animal Husbandry Dept","registrationNumber":"PV/CG/2019/13865","village":"Kishanpur Khurd","city":"Ludhiana","district":"Mysuru Rural","state":"Chhattisgarh","stateCode":"CG","lat":22.16114,"lng":80.91273,"yearsExperience":3,"languages":["hi","en"],"available":true},{"id":"paravet-cg78","type":"paravet","name":"Dr. Geeta Pandey","phone":"918585573247","email":"geeta.pandey25@vetmail.in","qualification":"BVSc & AH (Paravet extension)","college":"LUVAS Hisar","licenseBody":"State Animal Husbandry Dept","registrationNumber":"PV/CG/2017/33906","village":"Govindpur","city":"Ranchi","district":"Ranchi","state":"Chhattisgarh","stateCode":"CG","lat":19.04689,"lng":81.84867,"yearsExperience":28,"languages":["hi","en"],"available":true},{"id":"paravet-cg79","type":"paravet","name":"Priya Kaur Devi","phone":"919654110885","email":"priya.kaur91@vetmail.in","qualification":"Diploma in Animal Husbandry (DAH)","college":"State AH Department Training","licenseBody":"State Animal Husbandry Dept","registrationNumber":"PV/CG/2019/12960","village":"Kalan Nagar","city":"Ranchi","district":"Varanasi","state":"Chhattisgarh","stateCode":"CG","lat":22.97232,"lng":83.61425,"yearsExperience":4,"languages":["hi"],"available":false},{"id":"paravet-cg80","type":"paravet","name":"Dr. Sunita Devi","phone":"919449893951","email":"sunita.devi19@vetmail.in","qualification":"BVSc & AH (Paravet extension)","college":"OUAT Bhubaneswar","licenseBody":"State Animal Husbandry Dept","registrationNumber":"PV/CG/2015/71919","village":"Lakhanpur Kalan","city":"Lucknow","district":"Bhopal Rural","state":"Chhattisgarh","stateCode":"CG","lat":20.89709,"lng":81.32263,"yearsExperience":3,"languages":["hi","en"],"available":true},{"id":"paravet-cg81","type":"paravet","name":"Dr. Vijay Singh","phone":"918119622070","email":"vijay.singh57@vetmail.in","qualification":"NDDB AI Technician + Animal Health","college":"Kerala Veterinary University","licenseBody":"State Animal Husbandry Dept","registrationNumber":"PV/CG/2011/52233","village":"Khurd Khurd","city":"Pune","district":"Surat","state":"Chhattisgarh","stateCode":"CG","lat":19.79804,"lng":79.57671,"yearsExperience":27,"languages":["hi","en"],"available":true},{"id":"paravet-cg82","type":"paravet","name":"Suresh Das Devi","phone":"918637586507","email":"suresh.das46@vetmail.in","qualification":"BVSc & AH (Paravet extension)","college":"GADVASU Ludhiana","licenseBody":"State Animal Husbandry Dept","registrationNumber":"PV/CG/2018/59739","village":"Sultanpur","city":"Varanasi","district":"Amritsar Rural","state":"Chhattisgarh","stateCode":"CG","lat":21.89573,"lng":82.88,"yearsExperience":12,"languages":["hi","en"],"available":true},{"id":"vet-cg83","type":"vet","name":"Dr. Manoj Yadav","phone":"918619252957","email":"manoj.yadav22@vetmail.in","qualification":"BVSc & AH, MVSc (Surgery)","college":"OUAT Bhubaneswar","licenseBody":"Veterinary Council of India","registrationNumber":"VCI/CG/2022/19843","village":null,"city":"Jaipur","district":"Bhubaneswar Rural","state":"Chhattisgarh","stateCode":"CG","lat":23.49909,"lng":83.30431,"yearsExperience":16,"languages":["hi"],"available":true},{"id":"vet-cg84","type":"vet","name":"Dr. Sunita Joshi","phone":"916440299557","email":"sunita.joshi58@vetmail.in","qualification":"BVSc & AH, MVSc (Surgery)","college":"DUVASU Mathura","licenseBody":"Veterinary Council of India","registrationNumber":"VCI/CG/2010/84081","village":"Mohanpur Khurd","city":"Agra","district":"Rajkot Rural","state":"Chhattisgarh","stateCode":"CG","lat":21.60341,"lng":80.88539,"yearsExperience":23,"languages":["hi","en"],"available":true},{"id":"vet-cg85","type":"vet","name":"Dr. Manoj Kumar","phone":"917789053974","email":"manoj.kumar35@vetmail.in","qualification":"BVSc & AH, MVSc (Medicine)","college":"LUVAS Hisar","licenseBody":"Veterinary Council of India","registrationNumber":"VCI/CG/2022/86063","village":"Khurd Nagar","city":"Meerut","district":"Ludhiana District","state":"Chhattisgarh","stateCode":"CG","lat":22.0147,"lng":79.91354,"yearsExperience":10,"languages":["hi","en"],"available":true},{"id":"vet-cg86","type":"vet","name":"Dr. Radha Kumar","phone":"917392266849","email":"radha.kumar75@vetmail.in","qualification":"BVSc & AH","college":"DUVASU Mathura","licenseBody":"Veterinary Council of India","registrationNumber":"VCI/CG/2023/83628","village":null,"city":"Ahmedabad","district":"Amritsar District","state":"Chhattisgarh","stateCode":"CG","lat":20.384,"lng":83.81982,"yearsExperience":9,"languages":["hi","en"],"available":true},{"id":"vet-cg87","type":"vet","name":"Dr. Sunita Kaur","phone":"916629930787","email":"sunita.kaur20@vetmail.in","qualification":"BVSc & AH, MVSc","college":"GBPUAT Pantnagar","licenseBody":"Veterinary Council of India","registrationNumber":"VCI/CG/2020/57887","village":null,"city":"Agra","district":"Rajkot","state":"Chhattisgarh","stateCode":"CG","lat":20.33545,"lng":82.97301,"yearsExperience":22,"languages":["hi","en"],"available":true},{"id":"paravet-cg88","type":"paravet","name":"Dr. Sanjay Rao","phone":"919467934712","email":"sanjay.rao20@vetmail.in","qualification":"NDDB AI Technician + Animal Health","college":"OUAT Bhubaneswar","licenseBody":"State Animal Husbandry Dept","registrationNumber":"PV/CG/2011/75774","village":null,"city":"Raipur","district":"Indore District","state":"Chhattisgarh","stateCode":"CG","lat":20.52512,"lng":80.89145,"yearsExperience":5,"languages":["hi","en"],"available":true},{"id":"paravet-cg89","type":"paravet","name":"Dr. Rekha Pandey","phone":"919259957964","email":"rekha.pandey58@vetmail.in","qualification":"Certificate in Livestock Health Worker (LHW)","college":"KVK Extension","licenseBody":"State Animal Husbandry Dept","registrationNumber":"PV/CG/2016/14330","village":"Devgarh Kalan","city":"Madurai","district":"Ranchi Rural","state":"Chhattisgarh","stateCode":"CG","lat":23.03461,"lng":81.6764,"yearsExperience":12,"languages":["hi"],"available":true},{"id":"vet-cg90","type":"vet","name":"Dr. Anita Patel","phone":"918607210572","email":"anita.patel9@vetmail.in","qualification":"BVSc & AH, MVSc (Surgery)","college":"KVAFSU Bidar","licenseBody":"Veterinary Council of India","registrationNumber":"VCI/CG/2019/11863","village":null,"city":"Agra","district":"Rajkot","state":"Chhattisgarh","stateCode":"CG","lat":20.47282,"lng":80.74682,"yearsExperience":26,"languages":["hi"],"available":true},{"id":"paravet-cg91","type":"paravet","name":"Manoj Kaur Devi","phone":"919586645778","email":"manoj.kaur12@vetmail.in","qualification":"Certificate in Livestock Health Worker (LHW)","college":"TANUVAS Chennai","licenseBody":"State Animal Husbandry Dept","registrationNumber":"PV/CG/2020/74281","village":"Patti Nagar","city":"Indore","district":"Madurai District","state":"Chhattisgarh","stateCode":"CG","lat":21.82301,"lng":80.01214,"yearsExperience":15,"languages":["hi","en"],"available":true},{"id":"vet-cg92","type":"vet","name":"Dr. Ravi Choudhary","phone":"918555404614","email":"ravi.choudhary5@vetmail.in","qualification":"BVSc & AH, MVSc (Surgery)","college":"Rajasthan University of Veterinary Sciences","licenseBody":"Veterinary Council of India","registrationNumber":"VCI/CG/2022/23881","village":"Bajpur Khurd","city":"Surat","district":"Patna Rural","state":"Chhattisgarh","stateCode":"CG","lat":21.54709,"lng":81.24192,"yearsExperience":4,"languages":["hi","en"],"available":true},{"id":"paravet-cg93","type":"paravet","name":"Dr. Neha Yadav","phone":"916325162579","email":"neha.yadav1@vetmail.in","qualification":"BVSc & AH (Paravet extension)","college":"LUVAS Hisar","licenseBody":"State Animal Husbandry Dept","registrationNumber":"PV/CG/2022/13750","village":null,"city":"Raipur","district":"Mysuru District","state":"Chhattisgarh","stateCode":"CG","lat":22.82812,"lng":81.6973,"yearsExperience":5,"languages":["hi"],"available":true},{"id":"paravet-cg94","type":"paravet","name":"Dr. Rajesh Verma","phone":"919174854509","email":"rajesh.verma73@vetmail.in","qualification":"Certificate in Livestock Health Worker (LHW)","college":"Kerala Veterinary University","licenseBody":"State Animal Husbandry Dept","registrationNumber":"PV/CG/2018/11823","village":"Govindpur Khurd","city":"Coimbatore","district":"Kanpur Rural","state":"Chhattisgarh","stateCode":"CG","lat":22.6123,"lng":79.84551,"yearsExperience":1,"languages":["hi","en"],"available":true},{"id":"vet-cg95","type":"vet","name":"Dr. Radha Pandey","phone":"916268252963","email":"radha.pandey47@vetmail.in","qualification":"BVSc & AH, MVSc (Medicine)","college":"OUAT Bhubaneswar","licenseBody":"Veterinary Council of India","registrationNumber":"VCI/CG/2013/62074","village":null,"city":"Jaipur","district":"Patna","state":"Chhattisgarh","stateCode":"CG","lat":22.24686,"lng":80.09975,"yearsExperience":24,"languages":["hi","en"],"available":true},{"id":"paravet-cg96","type":"paravet","name":"Dr. Dinesh Reddy","phone":"917365968851","email":"dinesh.reddy76@vetmail.in","qualification":"BVSc & AH (Paravet extension)","college":"GBPUAT Pantnagar","licenseBody":"State Animal Husbandry Dept","registrationNumber":"PV/CG/2013/74922","village":null,"city":"Rajkot","district":"Meerut District","state":"Chhattisgarh","stateCode":"CG","lat":19.71364,"lng":80.93007,"yearsExperience":2,"languages":["hi","en"],"available":true},{"id":"paravet-cg97","type":"paravet","name":"Dr. Sunil Verma","phone":"917359435012","email":"sunil.verma52@vetmail.in","qualification":"Diploma in Animal Husbandry (DAH)","college":"AAU Anand","licenseBody":"State Animal Husbandry Dept","registrationNumber":"PV/CG/2023/41635","village":null,"city":"Kanpur","district":"Bhopal","state":"Chhattisgarh","stateCode":"CG","lat":19.82258,"lng":82.62072,"yearsExperience":21,"languages":["hi","en"],"available":true},{"id":"paravet-cg98","type":"paravet","name":"Dr. Suresh Gupta","phone":"919187853121","email":"suresh.gupta43@vetmail.in","qualification":"Certificate in Livestock Health Worker (LHW)","college":"State AH Department Training","licenseBody":"State Animal Husbandry Dept","registrationNumber":"PV/CG/2016/81091","village":null,"city":"Madurai","district":"Hubballi Rural","state":"Chhattisgarh","stateCode":"CG","lat":19.48359,"lng":83.5245,"yearsExperience":16,"languages":["hi","en"],"available":true},{"id":"vet-cg99","type":"vet","name":"Dr. Pradeep Choudhary","phone":"918521159855","email":"pradeep.choudhary73@vetmail.in","qualification":"BVSc & AH, MVSc (Surgery)","college":"GADVASU Ludhiana","licenseBody":"Veterinary Council of India","registrationNumber":"VCI/CG/2015/22123","village":"Krishnapur Khurd","city":"Bhopal","district":"Amritsar Rural","state":"Chhattisgarh","stateCode":"CG","lat":23.28077,"lng":80.26153,"yearsExperience":26,"languages":["hi","en"],"available":false},{"id":"vet-cg100","type":"vet","name":"Dr. Arun Mishra","phone":"918167987060","email":"arun.mishra91@vetmail.in","qualification":"BVSc & AH, MVSc","college":"MAFSU Nagpur","licenseBody":"Veterinary Council of India","registrationNumber":"VCI/CG/2018/41967","village":"Lakhanpur Khurd","city":"Ludhiana","district":"Bhubaneswar District","state":"Chhattisgarh","stateCode":"CG","lat":20.48369,"lng":81.99282,"yearsExperience":17,"languages":["hi"],"available":true},{"id":"paravet-cg101","type":"paravet","name":"Dr. Meena Verma","phone":"916479365858","email":"meena.verma10@vetmail.in","qualification":"Certificate in Livestock Health Worker (LHW)","college":"IVRI Bareilly","licenseBody":"State Animal Husbandry Dept","registrationNumber":"PV/CG/2018/80722","village":null,"city":"Ranchi","district":"Patna District","state":"Chhattisgarh","stateCode":"CG","lat":21.45585,"lng":81.87782,"yearsExperience":12,"languages":["hi"],"available":true},{"id":"paravet-cg102","type":"paravet","name":"Rajesh Mehta Devi","phone":"919478516340","email":"rajesh.mehta83@vetmail.in","qualification":"BVSc & AH (Paravet extension)","college":"WBUAFS Kolkata","licenseBody":"State Animal Husbandry Dept","registrationNumber":"PV/CG/2017/46816","village":null,"city":"Varanasi","district":"Ludhiana Rural","state":"Chhattisgarh","stateCode":"CG","lat":20.72341,"lng":80.46947,"yearsExperience":23,"languages":["hi"],"available":true},{"id":"vet-cg103","type":"vet","name":"Dr. Sarita Patel","phone":"919551574038","email":"sarita.patel0@vetmail.in","qualification":"BVSc & AH","college":"Kerala Veterinary University","licenseBody":"Veterinary Council of India","registrationNumber":"VCI/CG/2014/66151","village":"Sultanpur","city":"Nagpur","district":"Nagpur","state":"Chhattisgarh","stateCode":"CG","lat":19.74717,"lng":80.8959,"yearsExperience":22,"languages":["hi"],"available":true},{"id":"paravet-cg104","type":"paravet","name":"Dr. Pradeep Mehta","phone":"918020026157","email":"pradeep.mehta56@vetmail.in","qualification":"Certificate in Livestock Health Worker (LHW)","college":"DUVASU Mathura","licenseBody":"State Animal Husbandry Dept","registrationNumber":"PV/CG/2016/45680","village":"Nagar Kalan","city":"Indore","district":"Coimbatore District","state":"Chhattisgarh","stateCode":"CG","lat":23.3204,"lng":82.53621,"yearsExperience":4,"languages":["hi","en"],"available":true},{"id":"paravet-cg105","type":"paravet","name":"Dr. Anita Singh","phone":"918178730059","email":"anita.singh35@vetmail.in","qualification":"BVSc & AH (Paravet extension)","college":"Bihar Veterinary College","licenseBody":"State Animal Husbandry Dept","registrationNumber":"PV/CG/2013/42511","village":"Krishnapur Nagar","city":"Hubballi","district":"Indore District","state":"Chhattisgarh","stateCode":"CG","lat":23.18631,"lng":83.7899,"yearsExperience":2,"languages":["hi","en"],"available":true},{"id":"paravet-cg106","type":"paravet","name":"Dr. Lakshmi Thakur","phone":"919128945220","email":"lakshmi.thakur49@vetmail.in","qualification":"NDDB AI Technician + Animal Health","college":"AAU Anand","licenseBody":"State Animal Husbandry Dept","registrationNumber":"PV/CG/2021/66918","village":"Devgarh Khurd","city":"Ahmedabad","district":"Bhubaneswar District","state":"Chhattisgarh","stateCode":"CG","lat":20.57859,"lng":79.9654,"yearsExperience":17,"languages":["hi"],"available":true},{"id":"paravet-cg107","type":"paravet","name":"Dr. Rekha Sharma","phone":"918944071982","email":"rekha.sharma59@vetmail.in","qualification":"NDDB AI Technician + Animal Health","college":"GADVASU Ludhiana","licenseBody":"State Animal Husbandry Dept","registrationNumber":"PV/CG/2015/52054","village":"Chandpur Kalan","city":"Ranchi","district":"Varanasi","state":"Chhattisgarh","stateCode":"CG","lat":20.9156,"lng":81.34607,"yearsExperience":22,"languages":["hi","en"],"available":true},{"id":"paravet-cg108","type":"paravet","name":"Dr. Sunil Patel","phone":"918752002294","email":"sunil.patel36@vetmail.in","qualification":"NDDB AI Technician + Animal Health","college":"MAFSU Nagpur","licenseBody":"State Animal Husbandry Dept","registrationNumber":"PV/CG/2018/12659","village":null,"city":"Bhubaneswar","district":"Guwahati Rural","state":"Chhattisgarh","stateCode":"CG","lat":19.72196,"lng":83.72072,"yearsExperience":19,"languages":["hi"],"available":true},{"id":"paravet-cg109","type":"paravet","name":"Dr. Rajesh Gupta","phone":"917344408017","email":"rajesh.gupta62@vetmail.in","qualification":"NDDB AI Technician + Animal Health","college":"TANUVAS Chennai","licenseBody":"State Animal Husbandry Dept","registrationNumber":"PV/CG/2011/74060","village":"Govindpur Nagar","city":"Jaipur","district":"Coimbatore District","state":"Chhattisgarh","stateCode":"CG","lat":21.37122,"lng":82.65737,"yearsExperience":28,"languages":["hi","en"],"available":true},{"id":"paravet-cg110","type":"paravet","name":"Dr. Neha Mehta","phone":"917459153165","email":"neha.mehta75@vetmail.in","qualification":"NDDB AI Technician + Animal Health","college":"Assam Agricultural University","licenseBody":"State Animal Husbandry Dept","registrationNumber":"PV/CG/2022/87463","village":"Devgarh Kalan","city":"Ahmedabad","district":"Agra District","state":"Chhattisgarh","stateCode":"CG","lat":22.39289,"lng":81.20041,"yearsExperience":8,"languages":["hi","en"],"available":true},{"id":"paravet-cg111","type":"paravet","name":"Dr. Pradeep Mehta","phone":"917741186888","email":"pradeep.mehta66@vetmail.in","qualification":"BVSc & AH (Paravet extension)","college":"OUAT Bhubaneswar","licenseBody":"State Animal Husbandry Dept","registrationNumber":"PV/CG/2018/52228","village":null,"city":"Hubballi","district":"Coimbatore","state":"Chhattisgarh","stateCode":"CG","lat":20.8742,"lng":80.60371,"yearsExperience":1,"languages":["hi","en"],"available":false},{"id":"vet-cg112","type":"vet","name":"Dr. Deepak Reddy","phone":"916628898356","email":"deepak.reddy14@vetmail.in","qualification":"BVSc & AH, MVSc (Medicine)","college":"GADVASU Ludhiana","licenseBody":"Veterinary Council of India","registrationNumber":"VCI/CG/2014/38045","village":"Basantpur Kalan","city":"Jaipur","district":"Meerut Rural","state":"Chhattisgarh","stateCode":"CG","lat":19.42357,"lng":80.14105,"yearsExperience":8,"languages":["hi","en"],"available":true},{"id":"paravet-cg113","type":"paravet","name":"Dr. Sunil Pandey","phone":"918782712042","email":"sunil.pandey62@vetmail.in","qualification":"Diploma in Animal Husbandry (DAH)","college":"Assam Agricultural University","licenseBody":"State Animal Husbandry Dept","registrationNumber":"PV/CG/2020/63900","village":"Khurd Khurd","city":"Varanasi","district":"Surat Rural","state":"Chhattisgarh","stateCode":"CG","lat":21.78995,"lng":83.64627,"yearsExperience":19,"languages":["hi","en"],"available":true},{"id":"vet-cg114","type":"vet","name":"Dr. Sunita Yadav","phone":"918306261798","email":"sunita.yadav4@vetmail.in","qualification":"BVSc & AH, MVSc (Medicine)","college":"Rajasthan University of Veterinary Sciences","licenseBody":"Veterinary Council of India","registrationNumber":"VCI/CG/2011/29962","village":"Chandpur Nagar","city":"Meerut","district":"Kanpur","state":"Chhattisgarh","stateCode":"CG","lat":23.11443,"lng":80.23967,"yearsExperience":26,"languages":["hi","en"],"available":true},{"id":"paravet-cg115","type":"paravet","name":"Dr. Ashok Saini","phone":"919381336403","email":"ashok.saini91@vetmail.in","qualification":"Certificate in Livestock Health Worker (LHW)","college":"KVK Extension","licenseBody":"State Animal Husbandry Dept","registrationNumber":"PV/CG/2014/78770","village":"Krishnapur Nagar","city":"Amritsar","district":"Surat Rural","state":"Chhattisgarh","stateCode":"CG","lat":20.79304,"lng":82.26724,"yearsExperience":12,"languages":["hi","en"],"available":true},{"id":"paravet-cg116","type":"paravet","name":"Dr. Pradeep Nair","phone":"916860917136","email":"pradeep.nair43@vetmail.in","qualification":"Diploma in Animal Husbandry (DAH)","college":"KVAFSU Bidar","licenseBody":"State Animal Husbandry Dept","registrationNumber":"PV/CG/2018/33517","village":"Khurd Khurd","city":"Agra","district":"Lucknow","state":"Chhattisgarh","stateCode":"CG","lat":20.6564,"lng":80.45003,"yearsExperience":1,"languages":["hi","en"],"available":false},{"id":"paravet-cg117","type":"paravet","name":"Dr. Amit Pandey","phone":"916589231471","email":"amit.pandey58@vetmail.in","qualification":"BVSc & AH (Paravet extension)","college":"GADVASU Ludhiana","licenseBody":"State Animal Husbandry Dept","registrationNumber":"PV/CG/2021/26440","village":null,"city":"Surat","district":"Lucknow Rural","state":"Chhattisgarh","stateCode":"CG","lat":19.07643,"lng":83.62391,"yearsExperience":1,"languages":["hi"],"available":true},{"id":"vet-cg118","type":"vet","name":"Dr. Harish Mishra","phone":"917516710635","email":"harish.mishra2@vetmail.in","qualification":"BVSc & AH, MVSc","college":"Kerala Veterinary University","licenseBody":"Veterinary Council of India","registrationNumber":"VCI/CG/2021/19360","village":"Gangapur","city":"Varanasi","district":"Amritsar","state":"Chhattisgarh","stateCode":"CG","lat":22.82685,"lng":82.94453,"yearsExperience":5,"languages":["hi"],"available":true},{"id":"vet-cg119","type":"vet","name":"Dr. Pooja Choudhary","phone":"919899431899","email":"pooja.choudhary21@vetmail.in","qualification":"BVSc & AH, MVSc (Medicine)","college":"KVAFSU Bidar","licenseBody":"Veterinary Council of India","registrationNumber":"VCI/CG/2017/53976","village":"Sonpur Kalan","city":"Ranchi","district":"Kanpur District","state":"Chhattisgarh","stateCode":"CG","lat":19.66073,"lng":83.48867,"yearsExperience":13,"languages":["hi","en"],"available":true},{"id":"paravet-cg120","type":"paravet","name":"Dr. Suresh Pandey","phone":"919782600513","email":"suresh.pandey94@vetmail.in","qualification":"Certificate in Livestock Health Worker (LHW)","college":"KVK Extension","licenseBody":"State Animal Husbandry Dept","registrationNumber":"PV/CG/2010/91617","village":"Sonpur","city":"Pune","district":"Bhubaneswar District","state":"Chhattisgarh","stateCode":"CG","lat":20.97137,"lng":83.4192,"yearsExperience":3,"languages":["hi"],"available":true},{"id":"vet-cg121","type":"vet","name":"Dr. Radha Devi","phone":"917292026759","email":"radha.devi11@vetmail.in","qualification":"BVSc & AH, MVSc (Medicine)","college":"MAFSU Nagpur","licenseBody":"Veterinary Council of India","registrationNumber":"VCI/CG/2012/17762","village":"Mohanpur Nagar","city":"Nagpur","district":"Raipur","state":"Chhattisgarh","stateCode":"CG","lat":19.2451,"lng":82.03437,"yearsExperience":6,"languages":["hi"],"available":true},{"id":"vet-cg122","type":"vet","name":"Dr. Meena Das","phone":"918991246470","email":"meena.das19@vetmail.in","qualification":"BVSc & AH, MVSc (Surgery)","college":"LUVAS Hisar","licenseBody":"Veterinary Council of India","registrationNumber":"VCI/CG/2013/16733","village":"Kheri Kalan","city":"Bhopal","district":"Surat","state":"Chhattisgarh","stateCode":"CG","lat":19.62703,"lng":82.83,"yearsExperience":28,"languages":["hi"],"available":true},{"id":"paravet-cg123","type":"paravet","name":"Dr. Gopal Saini","phone":"917184507663","email":"gopal.saini53@vetmail.in","qualification":"Diploma in Animal Husbandry (DAH)","college":"WBUAFS Kolkata","licenseBody":"State Animal Husbandry Dept","registrationNumber":"PV/CG/2016/43859","village":"Devgarh","city":"Ahmedabad","district":"Mysuru Rural","state":"Chhattisgarh","stateCode":"CG","lat":20.69392,"lng":83.62933,"yearsExperience":3,"languages":["hi"],"available":true},{"id":"paravet-cg124","type":"paravet","name":"Dr. Sanjay Pandey","phone":"918529255968","email":"sanjay.pandey54@vetmail.in","qualification":"BVSc & AH (Paravet extension)","college":"Kerala Veterinary University","licenseBody":"State Animal Husbandry Dept","registrationNumber":"PV/CG/2019/29461","village":null,"city":"Coimbatore","district":"Raipur District","state":"Chhattisgarh","stateCode":"CG","lat":23.23237,"lng":83.10692,"yearsExperience":11,"languages":["hi"],"available":true},{"id":"paravet-cg125","type":"paravet","name":"Dr. Dinesh Patel","phone":"916934143676","email":"dinesh.patel30@vetmail.in","qualification":"NDDB AI Technician + Animal Health","college":"DUVASU Mathura","licenseBody":"State Animal Husbandry Dept","registrationNumber":"PV/CG/2014/95676","village":null,"city":"Kanpur","district":"Pune","state":"Chhattisgarh","stateCode":"CG","lat":19.45393,"lng":82.84517,"yearsExperience":28,"languages":["hi"],"available":true},{"id":"vet-cg126","type":"vet","name":"Dr. Mohan Das","phone":"919571272265","email":"mohan.das30@vetmail.in","qualification":"BVSc & AH","college":"Kerala Veterinary University","licenseBody":"Veterinary Council of India","registrationNumber":"VCI/CG/2022/70481","village":null,"city":"Lucknow","district":"Ranchi District","state":"Chhattisgarh","stateCode":"CG","lat":20.59566,"lng":80.18285,"yearsExperience":18,"languages":["hi","en"],"available":false},{"id":"paravet-cg127","type":"paravet","name":"Dr. Geeta Das","phone":"918697670163","email":"geeta.das58@vetmail.in","qualification":"Diploma in Animal Husbandry (DAH)","college":"TANUVAS Chennai","licenseBody":"State Animal Husbandry Dept","registrationNumber":"PV/CG/2019/64664","village":"Sonpur Kalan","city":"Bhopal","district":"Guwahati","state":"Chhattisgarh","stateCode":"CG","lat":22.31333,"lng":82.27719,"yearsExperience":9,"languages":["hi","en"],"available":true},{"id":"paravet-cg128","type":"paravet","name":"Gopal Joshi Devi","phone":"916085795807","email":"gopal.joshi92@vetmail.in","qualification":"Diploma in Animal Husbandry (DAH)","college":"KVAFSU Bidar","licenseBody":"State Animal Husbandry Dept","registrationNumber":"PV/CG/2015/11296","village":null,"city":"Ludhiana","district":"Bhubaneswar Rural","state":"Chhattisgarh","stateCode":"CG","lat":22.93043,"lng":83.45291,"yearsExperience":1,"languages":["hi","en"],"available":true},{"id":"vet-cg129","type":"vet","name":"Dr. Pooja Devi","phone":"917957991913","email":"pooja.devi18@vetmail.in","qualification":"BVSc & AH, MVSc (Surgery)","college":"KVAFSU Bidar","licenseBody":"Veterinary Council of India","registrationNumber":"VCI/CG/2023/99009","village":"Chandpur","city":"Meerut","district":"Madurai Rural","state":"Chhattisgarh","stateCode":"CG","lat":19.21877,"lng":81.56175,"yearsExperience":23,"languages":["hi"],"available":true},{"id":"paravet-cg130","type":"paravet","name":"Dr. Vinod Patel","phone":"917625838923","email":"vinod.patel31@vetmail.in","qualification":"Diploma in Animal Husbandry (DAH)","college":"TANUVAS Chennai","licenseBody":"State Animal Husbandry Dept","registrationNumber":"PV/CG/2010/29476","village":null,"city":"Jaipur","district":"Pune","state":"Chhattisgarh","stateCode":"CG","lat":22.00717,"lng":83.59018,"yearsExperience":8,"languages":["hi"],"available":true},{"id":"paravet-cg131","type":"paravet","name":"Dr. Mohan Das","phone":"919605442593","email":"mohan.das96@vetmail.in","qualification":"Certificate in Livestock Health Worker (LHW)","college":"Kerala Veterinary University","licenseBody":"State Animal Husbandry Dept","registrationNumber":"PV/CG/2012/66801","village":null,"city":"Coimbatore","district":"Lucknow District","state":"Chhattisgarh","stateCode":"CG","lat":21.436,"lng":80.55339,"yearsExperience":5,"languages":["hi","en"],"available":true},{"id":"vet-cg132","type":"vet","name":"Geeta Gupta Devi","phone":"919908209870","email":"geeta.gupta48@vetmail.in","qualification":"BVSc & AH, MVSc (Medicine)","college":"MAFSU Nagpur","licenseBody":"Veterinary Council of India","registrationNumber":"VCI/CG/2018/60501","village":null,"city":"Amritsar","district":"Meerut District","state":"Chhattisgarh","stateCode":"CG","lat":20.66221,"lng":80.14331,"yearsExperience":16,"languages":["hi"],"available":true},{"id":"paravet-cg133","type":"paravet","name":"Dr. Dinesh Nair","phone":"918937225914","email":"dinesh.nair73@vetmail.in","qualification":"Diploma in Animal Husbandry (DAH)","college":"AAU Anand","licenseBody":"State Animal Husbandry Dept","registrationNumber":"PV/CG/2011/79626","village":"Gangapur","city":"Guwahati","district":"Ludhiana","state":"Chhattisgarh","stateCode":"CG","lat":20.22591,"lng":79.72868,"yearsExperience":14,"languages":["hi"],"available":true},{"id":"paravet-cg134","type":"paravet","name":"Sanjay Singh Devi","phone":"919272237340","email":"sanjay.singh17@vetmail.in","qualification":"Diploma in Animal Husbandry (DAH)","college":"MAFSU Nagpur","licenseBody":"State Animal Husbandry Dept","registrationNumber":"PV/CG/2013/43454","village":"Ramnagar Kalan","city":"Rajkot","district":"Mysuru District","state":"Chhattisgarh","stateCode":"CG","lat":22.78636,"lng":82.38668,"yearsExperience":19,"languages":["hi","en"],"available":false},{"id":"vet-cg135","type":"vet","name":"Dr. Deepak Nair","phone":"919097865331","email":"deepak.nair62@vetmail.in","qualification":"BVSc & AH, MVSc","college":"MAFSU Nagpur","licenseBody":"Veterinary Council of India","registrationNumber":"VCI/CG/2018/60242","village":"Shivpuri","city":"Patna","district":"Ahmedabad","state":"Chhattisgarh","stateCode":"CG","lat":19.1208,"lng":79.59724,"yearsExperience":23,"languages":["hi","en"],"available":true},{"id":"vet-cg136","type":"vet","name":"Dr. Rajesh Mehta","phone":"917403733039","email":"rajesh.mehta68@vetmail.in","qualification":"BVSc & AH, MVSc","college":"LUVAS Hisar","licenseBody":"Veterinary Council of India","registrationNumber":"VCI/CG/2019/73079","village":"Khurd Kalan","city":"Ludhiana","district":"Coimbatore District","state":"Chhattisgarh","stateCode":"CG","lat":21.23309,"lng":80.96641,"yearsExperience":10,"languages":["hi","en"],"available":true},{"id":"paravet-cg137","type":"paravet","name":"Harish Patel Devi","phone":"916846683300","email":"harish.patel5@vetmail.in","qualification":"NDDB AI Technician + Animal Health","college":"TANUVAS Chennai","licenseBody":"State Animal Husbandry Dept","registrationNumber":"PV/CG/2018/31741","village":null,"city":"Bhubaneswar","district":"Ranchi District","state":"Chhattisgarh","stateCode":"CG","lat":21.59598,"lng":80.16513,"yearsExperience":13,"languages":["hi","en"],"available":true},{"id":"paravet-cg138","type":"paravet","name":"Dr. Ravi Gupta","phone":"918528585308","email":"ravi.gupta40@vetmail.in","qualification":"Diploma in Animal Husbandry (DAH)","college":"GADVASU Ludhiana","licenseBody":"State Animal Husbandry Dept","registrationNumber":"PV/CG/2018/89175","village":"Mohanpur Kalan","city":"Lucknow","district":"Ahmedabad","state":"Chhattisgarh","stateCode":"CG","lat":21.39971,"lng":82.35734,"yearsExperience":6,"languages":["hi"],"available":true},{"id":"vet-cg139","type":"vet","name":"Sanjay Gupta Devi","phone":"917719508634","email":"sanjay.gupta46@vetmail.in","qualification":"BVSc & AH, MVSc","college":"MAFSU Nagpur","licenseBody":"Veterinary Council of India","registrationNumber":"VCI/CG/2022/91387","village":null,"city":"Surat","district":"Agra","state":"Chhattisgarh","stateCode":"CG","lat":23.02437,"lng":83.38806,"yearsExperience":12,"languages":["hi","en"],"available":true},{"id":"paravet-cg140","type":"paravet","name":"Dr. Suresh Singh","phone":"919426755233","email":"suresh.singh19@vetmail.in","qualification":"NDDB AI Technician + Animal Health","college":"KVAFSU Bidar","licenseBody":"State Animal Husbandry Dept","registrationNumber":"PV/CG/2013/51589","village":"Khurd Nagar","city":"Lucknow","district":"Guwahati District","state":"Chhattisgarh","stateCode":"CG","lat":20.43382,"lng":83.47338,"yearsExperience":6,"languages":["hi","en"],"available":true},{"id":"paravet-cg141","type":"paravet","name":"Ravi Devi Devi","phone":"916917763716","email":"ravi.devi46@vetmail.in","qualification":"Certificate in Livestock Health Worker (LHW)","college":"IVRI Bareilly","licenseBody":"State Animal Husbandry Dept","registrationNumber":"PV/CG/2018/25989","village":"Sonpur","city":"Varanasi","district":"Hubballi District","state":"Chhattisgarh","stateCode":"CG","lat":20.16471,"lng":79.90857,"yearsExperience":21,"languages":["hi"],"available":true},{"id":"paravet-cg142","type":"paravet","name":"Dr. Vijay Nair","phone":"917209209441","email":"vijay.nair33@vetmail.in","qualification":"Certificate in Livestock Health Worker (LHW)","college":"Rajasthan University of Veterinary Sciences","licenseBody":"State Animal Husbandry Dept","registrationNumber":"PV/CG/2018/42078","village":"Kheri Nagar","city":"Nagpur","district":"Jaipur","state":"Chhattisgarh","stateCode":"CG","lat":20.04868,"lng":81.26146,"yearsExperience":19,"languages":["hi"],"available":true},{"id":"vet-cg143","type":"vet","name":"Dr. Gopal Nair","phone":"918091464045","email":"gopal.nair68@vetmail.in","qualification":"BVSc & AH, MVSc","college":"GADVASU Ludhiana","licenseBody":"Veterinary Council of India","registrationNumber":"VCI/CG/2023/46738","village":"Sonpur Kalan","city":"Lucknow","district":"Agra District","state":"Chhattisgarh","stateCode":"CG","lat":21.05712,"lng":82.3626,"yearsExperience":27,"languages":["hi"],"available":true},{"id":"vet-cg144","type":"vet","name":"Dr. Pradeep Thakur","phone":"917713548773","email":"pradeep.thakur82@vetmail.in","qualification":"BVSc & AH, MVSc (Medicine)","college":"MAFSU Nagpur","licenseBody":"Veterinary Council of India","registrationNumber":"VCI/CG/2014/89337","village":"Basantpur","city":"Ranchi","district":"Varanasi Rural","state":"Chhattisgarh","stateCode":"CG","lat":19.84431,"lng":82.47628,"yearsExperience":9,"languages":["hi","en"],"available":true},{"id":"vet-cg145","type":"vet","name":"Dr. Deepak Choudhary","phone":"918473729370","email":"deepak.choudhary55@vetmail.in","qualification":"BVSc & AH, MVSc","college":"MAFSU Nagpur","licenseBody":"Veterinary Council of India","registrationNumber":"VCI/CG/2013/35067","village":"Ramnagar","city":"Indore","district":"Mysuru","state":"Chhattisgarh","stateCode":"CG","lat":21.73544,"lng":80.08039,"yearsExperience":22,"languages":["hi","en"],"available":true},{"id":"vet-cg146","type":"vet","name":"Dr. Sarita Thakur","phone":"919376672578","email":"sarita.thakur97@vetmail.in","qualification":"BVSc & AH, MVSc (Surgery)","college":"WBUAFS Kolkata","licenseBody":"Veterinary Council of India","registrationNumber":"VCI/CG/2013/98206","village":"Gangapur Khurd","city":"Patna","district":"Bhubaneswar Rural","state":"Chhattisgarh","stateCode":"CG","lat":21.75066,"lng":79.45589,"yearsExperience":13,"languages":["hi"],"available":true},{"id":"vet-cg147","type":"vet","name":"Dr. Priya Devi","phone":"916630043085","email":"priya.devi43@vetmail.in","qualification":"BVSc & AH, MVSc (Medicine)","college":"AAU Anand","licenseBody":"Veterinary Council of India","registrationNumber":"VCI/CG/2021/67264","village":null,"city":"Guwahati","district":"Rajkot Rural","state":"Chhattisgarh","stateCode":"CG","lat":20.97002,"lng":83.63611,"yearsExperience":26,"languages":["hi"],"available":true},{"id":"paravet-cg148","type":"paravet","name":"Dr. Arun Mehta","phone":"917757649371","email":"arun.mehta50@vetmail.in","qualification":"NDDB AI Technician + Animal Health","college":"Bihar Veterinary College","licenseBody":"State Animal Husbandry Dept","registrationNumber":"PV/CG/2013/84978","village":null,"city":"Agra","district":"Meerut Rural","state":"Chhattisgarh","stateCode":"CG","lat":23.11046,"lng":80.63564,"yearsExperience":8,"languages":["hi"],"available":true},{"id":"paravet-cg149","type":"paravet","name":"Dr. Mohan Gupta","phone":"919362697025","email":"mohan.gupta53@vetmail.in","qualification":"Certificate in Livestock Health Worker (LHW)","college":"KVAFSU Bidar","licenseBody":"State Animal Husbandry Dept","registrationNumber":"PV/CG/2011/26743","village":"Kishanpur Nagar","city":"Agra","district":"Agra Rural","state":"Chhattisgarh","stateCode":"CG","lat":21.83586,"lng":79.44268,"yearsExperience":28,"languages":["hi","en"],"available":true},{"id":"paravet-cg150","type":"paravet","name":"Amit Choudhary Devi","phone":"916405624170","email":"amit.choudhary5@vetmail.in","qualification":"NDDB AI Technician + Animal Health","college":"State AH Department Training","licenseBody":"State Animal Husbandry Dept","registrationNumber":"PV/CG/2020/43357","village":"Lakhanpur","city":"Raipur","district":"Bhubaneswar","state":"Chhattisgarh","stateCode":"CG","lat":20.70243,"lng":81.84929,"yearsExperience":10,"languages":["hi","en"],"available":true},{"id":"vet-cg151","type":"vet","name":"Dr. Pradeep Choudhary","phone":"916680081226","email":"pradeep.choudhary86@vetmail.in","qualification":"BVSc & AH, MVSc","college":"OUAT Bhubaneswar","licenseBody":"Veterinary Council of India","registrationNumber":"VCI/CG/2020/27613","village":null,"city":"Mysuru","district":"Bhopal","state":"Chhattisgarh","stateCode":"CG","lat":19.00554,"lng":79.47705,"yearsExperience":5,"languages":["hi","en"],"available":true},{"id":"paravet-cg152","type":"paravet","name":"Dr. Radha Devi","phone":"916933814026","email":"radha.devi93@vetmail.in","qualification":"Certificate in Livestock Health Worker (LHW)","college":"KVK Extension","licenseBody":"State Animal Husbandry Dept","registrationNumber":"PV/CG/2014/56190","village":"Sitapur Khurd","city":"Nagpur","district":"Ludhiana Rural","state":"Chhattisgarh","stateCode":"CG","lat":19.06339,"lng":79.56813,"yearsExperience":26,"languages":["hi","en"],"available":true},{"id":"paravet-cg153","type":"paravet","name":"Dr. Dinesh Joshi","phone":"919967849502","email":"dinesh.joshi66@vetmail.in","qualification":"NDDB AI Technician + Animal Health","college":"LUVAS Hisar","licenseBody":"State Animal Husbandry Dept","registrationNumber":"PV/CG/2018/37952","village":"Kheri","city":"Ranchi","district":"Mysuru District","state":"Chhattisgarh","stateCode":"CG","lat":19.38965,"lng":80.41462,"yearsExperience":14,"languages":["hi"],"available":true},{"id":"paravet-cg154","type":"paravet","name":"Dr. Harish Joshi","phone":"919533019509","email":"harish.joshi83@vetmail.in","qualification":"Certificate in Livestock Health Worker (LHW)","college":"DUVASU Mathura","licenseBody":"State Animal Husbandry Dept","registrationNumber":"PV/CG/2017/46657","village":null,"city":"Amritsar","district":"Ahmedabad","state":"Chhattisgarh","stateCode":"CG","lat":20.79553,"lng":82.36634,"yearsExperience":25,"languages":["hi"],"available":true},{"id":"paravet-cg155","type":"paravet","name":"Dr. Suresh Singh","phone":"917646867952","email":"suresh.singh64@vetmail.in","qualification":"Certificate in Livestock Health Worker (LHW)","college":"LUVAS Hisar","licenseBody":"State Animal Husbandry Dept","registrationNumber":"PV/CG/2011/94488","village":"Sonpur Kalan","city":"Madurai","district":"Ludhiana Rural","state":"Chhattisgarh","stateCode":"CG","lat":22.33142,"lng":82.27709,"yearsExperience":11,"languages":["hi"],"available":true},{"id":"vet-cg156","type":"vet","name":"Dr. Sanjay Rao","phone":"918536105368","email":"sanjay.rao69@vetmail.in","qualification":"BVSc & AH","college":"WBUAFS Kolkata","licenseBody":"Veterinary Council of India","registrationNumber":"VCI/CG/2020/33627","village":"Sultanpur","city":"Ludhiana","district":"Lucknow Rural","state":"Chhattisgarh","stateCode":"CG","lat":20.75287,"lng":79.90291,"yearsExperience":12,"languages":["hi"],"available":true},{"id":"vet-cg157","type":"vet","name":"Dr. Ravi Joshi","phone":"917891832924","email":"ravi.joshi53@vetmail.in","qualification":"BVSc & AH, MVSc","college":"TANUVAS Chennai","licenseBody":"Veterinary Council of India","registrationNumber":"VCI/CG/2014/63856","village":"Sitapur Nagar","city":"Surat","district":"Madurai District","state":"Chhattisgarh","stateCode":"CG","lat":22.72708,"lng":81.17124,"yearsExperience":17,"languages":["hi"],"available":true},{"id":"paravet-cg158","type":"paravet","name":"Dr. Radha Pandey","phone":"918268925347","email":"radha.pandey56@vetmail.in","qualification":"NDDB AI Technician + Animal Health","college":"State AH Department Training","licenseBody":"State Animal Husbandry Dept","registrationNumber":"PV/CG/2016/37791","village":"Sonpur","city":"Varanasi","district":"Pune Rural","state":"Chhattisgarh","stateCode":"CG","lat":23.36176,"lng":81.98176,"yearsExperience":14,"languages":["hi","en"],"available":true},{"id":"paravet-cg159","type":"paravet","name":"Priya Mishra Devi","phone":"916719861307","email":"priya.mishra90@vetmail.in","qualification":"NDDB AI Technician + Animal Health","college":"WBUAFS Kolkata","licenseBody":"State Animal Husbandry Dept","registrationNumber":"PV/CG/2019/39334","village":"Basantpur","city":"Patna","district":"Ranchi","state":"Chhattisgarh","stateCode":"CG","lat":23.40759,"lng":79.55397,"yearsExperience":27,"languages":["hi","en"],"available":true},{"id":"vet-cg160","type":"vet","name":"Dr. Rajesh Patel","phone":"917176934269","email":"rajesh.patel4@vetmail.in","qualification":"BVSc & AH","college":"Assam Agricultural University","licenseBody":"Veterinary Council of India","registrationNumber":"VCI/CG/2012/41411","village":null,"city":"Varanasi","district":"Raipur District","state":"Chhattisgarh","stateCode":"CG","lat":19.19547,"lng":81.07705,"yearsExperience":22,"languages":["hi","en"],"available":true},{"id":"vet-cg161","type":"vet","name":"Dr. Pooja Kaur","phone":"917778976564","email":"pooja.kaur7@vetmail.in","qualification":"BVSc & AH, MVSc (Medicine)","college":"MAFSU Nagpur","licenseBody":"Veterinary Council of India","registrationNumber":"VCI/CG/2011/84068","village":"Shivpuri Nagar","city":"Guwahati","district":"Lucknow District","state":"Chhattisgarh","stateCode":"CG","lat":21.92506,"lng":80.39066,"yearsExperience":15,"languages":["hi","en"],"available":true},{"id":"paravet-cg162","type":"paravet","name":"Dr. Sunil Mishra","phone":"917849412202","email":"sunil.mishra67@vetmail.in","qualification":"BVSc & AH (Paravet extension)","college":"Bihar Veterinary College","licenseBody":"State Animal Husbandry Dept","registrationNumber":"PV/CG/2020/38588","village":null,"city":"Varanasi","district":"Coimbatore District","state":"Chhattisgarh","stateCode":"CG","lat":19.03014,"lng":79.45594,"yearsExperience":23,"languages":["hi"],"available":true},{"id":"paravet-cg163","type":"paravet","name":"Dr. Anita Joshi","phone":"916487395343","email":"anita.joshi13@vetmail.in","qualification":"Diploma in Animal Husbandry (DAH)","college":"KVK Extension","licenseBody":"State Animal Husbandry Dept","registrationNumber":"PV/CG/2023/80290","village":"Kishanpur Kalan","city":"Pune","district":"Nagpur Rural","state":"Chhattisgarh","stateCode":"CG","lat":20.90097,"lng":81.07208,"yearsExperience":7,"languages":["hi","en"],"available":false},{"id":"vet-cg164","type":"vet","name":"Dr. Rekha Mishra","phone":"919114456868","email":"rekha.mishra93@vetmail.in","qualification":"BVSc & AH","college":"TANUVAS Chennai","licenseBody":"Veterinary Council of India","registrationNumber":"VCI/CG/2016/83227","village":"Mohanpur Nagar","city":"Nagpur","district":"Mysuru Rural","state":"Chhattisgarh","stateCode":"CG","lat":21.82946,"lng":81.1605,"yearsExperience":3,"languages":["hi","en"],"available":true},{"id":"paravet-cg165","type":"paravet","name":"Dr. Vinod Joshi","phone":"916566214508","email":"vinod.joshi17@vetmail.in","qualification":"Certificate in Livestock Health Worker (LHW)","college":"Kerala Veterinary University","licenseBody":"State Animal Husbandry Dept","registrationNumber":"PV/CG/2010/85701","village":"Sultanpur","city":"Kanpur","district":"Mysuru","state":"Chhattisgarh","stateCode":"CG","lat":21.71677,"lng":79.98431,"yearsExperience":1,"languages":["hi"],"available":true},{"id":"paravet-cg166","type":"paravet","name":"Dr. Neha Singh","phone":"918172412969","email":"neha.singh26@vetmail.in","qualification":"BVSc & AH (Paravet extension)","college":"MAFSU Nagpur","licenseBody":"State Animal Husbandry Dept","registrationNumber":"PV/CG/2021/83378","village":null,"city":"Coimbatore","district":"Ranchi","state":"Chhattisgarh","stateCode":"CG","lat":23.19406,"lng":82.01827,"yearsExperience":16,"languages":["hi"],"available":false},{"id":"vet-cg167","type":"vet","name":"Dr. Vinod Gupta","phone":"918355572342","email":"vinod.gupta14@vetmail.in","qualification":"BVSc & AH, MVSc","college":"MAFSU Nagpur","licenseBody":"Veterinary Council of India","registrationNumber":"VCI/CG/2014/28183","village":null,"city":"Lucknow","district":"Rajkot District","state":"Chhattisgarh","stateCode":"CG","lat":21.83816,"lng":79.95968,"yearsExperience":15,"languages":["hi","en"],"available":true},{"id":"paravet-cg168","type":"paravet","name":"Dr. Pooja Pandey","phone":"919638141953","email":"pooja.pandey51@vetmail.in","qualification":"BVSc & AH (Paravet extension)","college":"GBPUAT Pantnagar","licenseBody":"State Animal Husbandry Dept","registrationNumber":"PV/CG/2010/44614","village":"Sultanpur Nagar","city":"Bhopal","district":"Hubballi","state":"Chhattisgarh","stateCode":"CG","lat":19.69328,"lng":83.67043,"yearsExperience":11,"languages":["hi"],"available":true},{"id":"paravet-cg169","type":"paravet","name":"Dr. Sunita Sharma","phone":"916854934844","email":"sunita.sharma57@vetmail.in","qualification":"NDDB AI Technician + Animal Health","college":"State AH Department Training","licenseBody":"State Animal Husbandry Dept","registrationNumber":"PV/CG/2014/91524","village":"Mohanpur Khurd","city":"Agra","district":"Coimbatore","state":"Chhattisgarh","stateCode":"CG","lat":22.21578,"lng":82.25644,"yearsExperience":5,"languages":["hi"],"available":true},{"id":"paravet-cg170","type":"paravet","name":"Dr. Sarita Choudhary","phone":"917325213409","email":"sarita.choudhary54@vetmail.in","qualification":"Diploma in Animal Husbandry (DAH)","college":"Assam Agricultural University","licenseBody":"State Animal Husbandry Dept","registrationNumber":"PV/CG/2013/55831","village":"Krishnapur","city":"Bhopal","district":"Jaipur","state":"Chhattisgarh","stateCode":"CG","lat":21.97293,"lng":82.61444,"yearsExperience":6,"languages":["hi","en"],"available":true},{"id":"paravet-cg171","type":"paravet","name":"Dr. Suresh Mehta","phone":"916171134126","email":"suresh.mehta60@vetmail.in","qualification":"NDDB AI Technician + Animal Health","college":"WBUAFS Kolkata","licenseBody":"State Animal Husbandry Dept","registrationNumber":"PV/CG/2012/31023","village":"Rampur","city":"Amritsar","district":"Patna District","state":"Chhattisgarh","stateCode":"CG","lat":22.13083,"lng":82.2272,"yearsExperience":4,"languages":["hi","en"],"available":true},{"id":"paravet-cg172","type":"paravet","name":"Pooja Das Devi","phone":"919669500777","email":"pooja.das90@vetmail.in","qualification":"Diploma in Animal Husbandry (DAH)","college":"GBPUAT Pantnagar","licenseBody":"State Animal Husbandry Dept","registrationNumber":"PV/CG/2013/87833","village":"Rampur","city":"Ludhiana","district":"Amritsar","state":"Chhattisgarh","stateCode":"CG","lat":23.1444,"lng":83.2561,"yearsExperience":28,"languages":["hi","en"],"available":true},{"id":"vet-cg173","type":"vet","name":"Dr. Sunita Reddy","phone":"919988317690","email":"sunita.reddy9@vetmail.in","qualification":"BVSc & AH, MVSc (Medicine)","college":"WBUAFS Kolkata","licenseBody":"Veterinary Council of India","registrationNumber":"VCI/CG/2018/29899","village":"Sultanpur Nagar","city":"Meerut","district":"Madurai","state":"Chhattisgarh","stateCode":"CG","lat":19.14572,"lng":80.2413,"yearsExperience":18,"languages":["hi","en"],"available":true},{"id":"paravet-cg174","type":"paravet","name":"Dr. Ravi Choudhary","phone":"916537931740","email":"ravi.choudhary75@vetmail.in","qualification":"BVSc & AH (Paravet extension)","college":"Kerala Veterinary University","licenseBody":"State Animal Husbandry Dept","registrationNumber":"PV/CG/2017/71906","village":"Sultanpur Kalan","city":"Bhubaneswar","district":"Kanpur","state":"Chhattisgarh","stateCode":"CG","lat":19.60492,"lng":80.40561,"yearsExperience":4,"languages":["hi","en"],"available":true},{"id":"vet-cg175","type":"vet","name":"Dr. Ravi Mehta","phone":"918139642076","email":"ravi.mehta91@vetmail.in","qualification":"BVSc & AH, MVSc (Medicine)","college":"AAU Anand","licenseBody":"Veterinary Council of India","registrationNumber":"VCI/CG/2014/53998","village":"Devgarh Khurd","city":"Jaipur","district":"Ahmedabad District","state":"Chhattisgarh","stateCode":"CG","lat":22.4202,"lng":82.46454,"yearsExperience":23,"languages":["hi"],"available":true},{"id":"paravet-cg176","type":"paravet","name":"Dr. Sunil Das","phone":"916575196007","email":"sunil.das15@vetmail.in","qualification":"Certificate in Livestock Health Worker (LHW)","college":"OUAT Bhubaneswar","licenseBody":"State Animal Husbandry Dept","registrationNumber":"PV/CG/2021/12140","village":"Nandgaon Nagar","city":"Bhubaneswar","district":"Guwahati District","state":"Chhattisgarh","stateCode":"CG","lat":22.91676,"lng":81.91771,"yearsExperience":28,"languages":["hi"],"available":true},{"id":"vet-cg177","type":"vet","name":"Dr. Suresh Reddy","phone":"919540857953","email":"suresh.reddy80@vetmail.in","qualification":"BVSc & AH","college":"Rajasthan University of Veterinary Sciences","licenseBody":"Veterinary Council of India","registrationNumber":"VCI/CG/2017/46426","village":"Khurd Nagar","city":"Ludhiana","district":"Ahmedabad","state":"Chhattisgarh","stateCode":"CG","lat":20.54766,"lng":82.90369,"yearsExperience":16,"languages":["hi"],"available":true},{"id":"vet-cg178","type":"vet","name":"Dr. Deepak Mehta","phone":"917512716261","email":"deepak.mehta56@vetmail.in","qualification":"BVSc & AH, MVSc (Medicine)","college":"GBPUAT Pantnagar","licenseBody":"Veterinary Council of India","registrationNumber":"VCI/CG/2015/60635","village":null,"city":"Lucknow","district":"Varanasi Rural","state":"Chhattisgarh","stateCode":"CG","lat":19.80057,"lng":83.16052,"yearsExperience":1,"languages":["hi","en"],"available":true},{"id":"vet-cg179","type":"vet","name":"Dr. Dinesh Saini","phone":"917581280736","email":"dinesh.saini69@vetmail.in","qualification":"BVSc & AH, MVSc","college":"WBUAFS Kolkata","licenseBody":"Veterinary Council of India","registrationNumber":"VCI/CG/2017/39237","village":null,"city":"Kanpur","district":"Raipur Rural","state":"Chhattisgarh","stateCode":"CG","lat":19.51321,"lng":80.56848,"yearsExperience":21,"languages":["hi","en"],"available":true},{"id":"vet-cg180","type":"vet","name":"Dr. Sunita Saini","phone":"916728444932","email":"sunita.saini47@vetmail.in","qualification":"BVSc & AH, MVSc (Medicine)","college":"GBPUAT Pantnagar","licenseBody":"Veterinary Council of India","registrationNumber":"VCI/CG/2013/74922","village":null,"city":"Ranchi","district":"Kanpur","state":"Chhattisgarh","stateCode":"CG","lat":19.19776,"lng":83.13282,"yearsExperience":18,"languages":["hi","en"],"available":true},{"id":"paravet-cg181","type":"paravet","name":"Dr. Sunita Thakur","phone":"919161538721","email":"sunita.thakur84@vetmail.in","qualification":"Diploma in Animal Husbandry (DAH)","college":"GBPUAT Pantnagar","licenseBody":"State Animal Husbandry Dept","registrationNumber":"PV/CG/2012/75996","village":"Mohanpur Kalan","city":"Jaipur","district":"Madurai Rural","state":"Chhattisgarh","stateCode":"CG","lat":21.1467,"lng":79.54852,"yearsExperience":20,"languages":["hi","en"],"available":true},{"id":"paravet-cg182","type":"paravet","name":"Dr. Suresh Yadav","phone":"916932471391","email":"suresh.yadav51@vetmail.in","qualification":"NDDB AI Technician + Animal Health","college":"Assam Agricultural University","licenseBody":"State Animal Husbandry Dept","registrationNumber":"PV/CG/2010/68213","village":"Kalan Khurd","city":"Surat","district":"Surat","state":"Chhattisgarh","stateCode":"CG","lat":22.50551,"lng":80.9566,"yearsExperience":13,"languages":["hi","en"],"available":true},{"id":"vet-cg183","type":"vet","name":"Anita Patel Devi","phone":"917415610327","email":"anita.patel72@vetmail.in","qualification":"BVSc & AH, MVSc (Surgery)","college":"Assam Agricultural University","licenseBody":"Veterinary Council of India","registrationNumber":"VCI/CG/2010/50560","village":"Bharatpur Khurd","city":"Hubballi","district":"Guwahati","state":"Chhattisgarh","stateCode":"CG","lat":22.4127,"lng":79.65576,"yearsExperience":1,"languages":["hi","en"],"available":true},{"id":"paravet-cg184","type":"paravet","name":"Dr. Sanjay Das","phone":"918846398547","email":"sanjay.das25@vetmail.in","qualification":"Diploma in Animal Husbandry (DAH)","college":"Bihar Veterinary College","licenseBody":"State Animal Husbandry Dept","registrationNumber":"PV/CG/2013/98858","village":"Lakhanpur Nagar","city":"Meerut","district":"Meerut Rural","state":"Chhattisgarh","stateCode":"CG","lat":21.60413,"lng":82.86397,"yearsExperience":28,"languages":["hi","en"],"available":false},{"id":"paravet-cg185","type":"paravet","name":"Dr. Sunita Thakur","phone":"917589900167","email":"sunita.thakur97@vetmail.in","qualification":"BVSc & AH (Paravet extension)","college":"AAU Anand","licenseBody":"State Animal Husbandry Dept","registrationNumber":"PV/CG/2011/86632","village":null,"city":"Ludhiana","district":"Amritsar Rural","state":"Chhattisgarh","stateCode":"CG","lat":19.95071,"lng":79.60432,"yearsExperience":20,"languages":["hi","en"],"available":true},{"id":"paravet-cg186","type":"paravet","name":"Dr. Pooja Joshi","phone":"918403596812","email":"pooja.joshi61@vetmail.in","qualification":"Diploma in Animal Husbandry (DAH)","college":"TANUVAS Chennai","licenseBody":"State Animal Husbandry Dept","registrationNumber":"PV/CG/2017/95565","village":"Sultanpur Nagar","city":"Agra","district":"Madurai District","state":"Chhattisgarh","stateCode":"CG","lat":19.52701,"lng":83.39576,"yearsExperience":17,"languages":["hi"],"available":true},{"id":"paravet-cg187","type":"paravet","name":"Dr. Arun Mishra","phone":"917287538792","email":"arun.mishra24@vetmail.in","qualification":"NDDB AI Technician + Animal Health","college":"GADVASU Ludhiana","licenseBody":"State Animal Husbandry Dept","registrationNumber":"PV/CG/2019/45346","village":"Ramnagar","city":"Mysuru","district":"Guwahati","state":"Chhattisgarh","stateCode":"CG","lat":22.91601,"lng":79.52769,"yearsExperience":4,"languages":["hi","en"],"available":true},{"id":"paravet-cg188","type":"paravet","name":"Gopal Patel Devi","phone":"919681728538","email":"gopal.patel44@vetmail.in","qualification":"Certificate in Livestock Health Worker (LHW)","college":"TANUVAS Chennai","licenseBody":"State Animal Husbandry Dept","registrationNumber":"PV/CG/2023/96564","village":null,"city":"Pune","district":"Surat District","state":"Chhattisgarh","stateCode":"CG","lat":21.25485,"lng":83.25395,"yearsExperience":8,"languages":["hi","en"],"available":true},{"id":"paravet-cg189","type":"paravet","name":"Dr. Meena Devi","phone":"919098420993","email":"meena.devi84@vetmail.in","qualification":"NDDB AI Technician + Animal Health","college":"TANUVAS Chennai","licenseBody":"State Animal Husbandry Dept","registrationNumber":"PV/CG/2020/44555","village":"Kheri","city":"Mysuru","district":"Nagpur","state":"Chhattisgarh","stateCode":"CG","lat":19.73659,"lng":79.6943,"yearsExperience":2,"languages":["hi","en"],"available":true},{"id":"vet-cg190","type":"vet","name":"Dr. Lakshmi Choudhary","phone":"917674045228","email":"lakshmi.choudhary6@vetmail.in","qualification":"BVSc & AH, MVSc","college":"WBUAFS Kolkata","licenseBody":"Veterinary Council of India","registrationNumber":"VCI/CG/2019/26878","village":"Sultanpur Khurd","city":"Pune","district":"Ahmedabad","state":"Chhattisgarh","stateCode":"CG","lat":20.59553,"lng":83.17168,"yearsExperience":26,"languages":["hi"],"available":true},{"id":"paravet-cg191","type":"paravet","name":"Dr. Rekha Das","phone":"917449061341","email":"rekha.das13@vetmail.in","qualification":"BVSc & AH (Paravet extension)","college":"IVRI Bareilly","licenseBody":"State Animal Husbandry Dept","registrationNumber":"PV/CG/2022/34720","village":"Kalan Nagar","city":"Pune","district":"Ludhiana District","state":"Chhattisgarh","stateCode":"CG","lat":19.68897,"lng":79.62584,"yearsExperience":24,"languages":["hi","en"],"available":true},{"id":"vet-cg192","type":"vet","name":"Dr. Ravi Kumar","phone":"918181961402","email":"ravi.kumar46@vetmail.in","qualification":"BVSc & AH, MVSc (Surgery)","college":"WBUAFS Kolkata","licenseBody":"Veterinary Council of India","registrationNumber":"VCI/CG/2015/44287","village":"Nandgaon Nagar","city":"Varanasi","district":"Pune","state":"Chhattisgarh","stateCode":"CG","lat":22.4258,"lng":81.5683,"yearsExperience":16,"languages":["hi"],"available":true},{"id":"paravet-cg193","type":"paravet","name":"Dr. Sarita Sharma","phone":"918077851686","email":"sarita.sharma85@vetmail.in","qualification":"BVSc & AH (Paravet extension)","college":"KVK Extension","licenseBody":"State Animal Husbandry Dept","registrationNumber":"PV/CG/2013/11183","village":"Ramnagar Nagar","city":"Lucknow","district":"Coimbatore District","state":"Chhattisgarh","stateCode":"CG","lat":20.22881,"lng":81.21492,"yearsExperience":18,"languages":["hi"],"available":true},{"id":"vet-cg194","type":"vet","name":"Deepak Nair Devi","phone":"918450264832","email":"deepak.nair89@vetmail.in","qualification":"BVSc & AH, MVSc (Surgery)","college":"LUVAS Hisar","licenseBody":"Veterinary Council of India","registrationNumber":"VCI/CG/2021/98219","village":"Sultanpur Khurd","city":"Bhubaneswar","district":"Meerut District","state":"Chhattisgarh","stateCode":"CG","lat":23.06075,"lng":81.01402,"yearsExperience":15,"languages":["hi","en"],"available":true},{"id":"paravet-cg195","type":"paravet","name":"Dr. Sarita Choudhary","phone":"917572267696","email":"sarita.choudhary97@vetmail.in","qualification":"Certificate in Livestock Health Worker (LHW)","college":"GADVASU Ludhiana","licenseBody":"State Animal Husbandry Dept","registrationNumber":"PV/CG/2012/12176","village":"Bajpur Nagar","city":"Rajkot","district":"Guwahati Rural","state":"Chhattisgarh","stateCode":"CG","lat":20.74796,"lng":83.52,"yearsExperience":12,"languages":["hi","en"],"available":false},{"id":"paravet-cg196","type":"paravet","name":"Dr. Ashok Saini","phone":"918471987888","email":"ashok.saini89@vetmail.in","qualification":"Certificate in Livestock Health Worker (LHW)","college":"Rajasthan University of Veterinary Sciences","licenseBody":"State Animal Husbandry Dept","registrationNumber":"PV/CG/2019/34764","village":null,"city":"Rajkot","district":"Raipur","state":"Chhattisgarh","stateCode":"CG","lat":20.43434,"lng":80.93247,"yearsExperience":14,"languages":["hi"],"available":true},{"id":"paravet-cg197","type":"paravet","name":"Dr. Sanjay Devi","phone":"916210881165","email":"sanjay.devi39@vetmail.in","qualification":"Certificate in Livestock Health Worker (LHW)","college":"AAU Anand","licenseBody":"State Animal Husbandry Dept","registrationNumber":"PV/CG/2011/85617","village":"Krishnapur Kalan","city":"Indore","district":"Ludhiana Rural","state":"Chhattisgarh","stateCode":"CG","lat":21.05908,"lng":81.95619,"yearsExperience":22,"languages":["hi"],"available":true},{"id":"vet-cg198","type":"vet","name":"Lakshmi Mehta Devi","phone":"916739917837","email":"lakshmi.mehta69@vetmail.in","qualification":"BVSc & AH, MVSc","college":"Assam Agricultural University","licenseBody":"Veterinary Council of India","registrationNumber":"VCI/CG/2020/38608","village":"Kheri Nagar","city":"Coimbatore","district":"Surat Rural","state":"Chhattisgarh","stateCode":"CG","lat":20.95823,"lng":83.7248,"yearsExperience":25,"languages":["hi","en"],"available":false},{"id":"paravet-cg199","type":"paravet","name":"Dr. Amit Mehta","phone":"917499293267","email":"amit.mehta66@vetmail.in","qualification":"BVSc & AH (Paravet extension)","college":"GADVASU Ludhiana","licenseBody":"State Animal Husbandry Dept","registrationNumber":"PV/CG/2020/36740","village":"Gangapur","city":"Madurai","district":"Coimbatore District","state":"Chhattisgarh","stateCode":"CG","lat":21.22894,"lng":83.01591,"yearsExperience":6,"languages":["hi"],"available":true},{"id":"vet-cg200","type":"vet","name":"Dr. Anita Yadav","phone":"916298906333","email":"anita.yadav87@vetmail.in","qualification":"BVSc & AH, MVSc (Medicine)","college":"GADVASU Ludhiana","licenseBody":"Veterinary Council of India","registrationNumber":"VCI/CG/2019/27211","village":"Nagar Kalan","city":"Ranchi","district":"Mysuru","state":"Chhattisgarh","stateCode":"CG","lat":23.28782,"lng":79.90005,"yearsExperience":26,"languages":["hi"],"available":true},{"id":"paravet-cg201","type":"paravet","name":"Dr. Radha Devi","phone":"916376321234","email":"radha.devi97@vetmail.in","qualification":"BVSc & AH (Paravet extension)","college":"AAU Anand","licenseBody":"State Animal Husbandry Dept","registrationNumber":"PV/CG/2015/43190","village":"Kishanpur Kalan","city":"Mysuru","district":"Rajkot District","state":"Chhattisgarh","stateCode":"CG","lat":21.11565,"lng":82.83671,"yearsExperience":25,"languages":["hi"],"available":true},{"id":"paravet-cg202","type":"paravet","name":"Dr. Priya Mehta","phone":"919556742257","email":"priya.mehta9@vetmail.in","qualification":"Certificate in Livestock Health Worker (LHW)","college":"AAU Anand","licenseBody":"State Animal Husbandry Dept","registrationNumber":"PV/CG/2023/92781","village":null,"city":"Kanpur","district":"Bhopal Rural","state":"Chhattisgarh","stateCode":"CG","lat":23.40554,"lng":83.14346,"yearsExperience":15,"languages":["hi"],"available":true},{"id":"vet-cg203","type":"vet","name":"Dr. Suman Choudhary","phone":"919782937781","email":"suman.choudhary44@vetmail.in","qualification":"BVSc & AH, MVSc (Surgery)","college":"LUVAS Hisar","licenseBody":"Veterinary Council of India","registrationNumber":"VCI/CG/2014/57787","village":null,"city":"Coimbatore","district":"Lucknow Rural","state":"Chhattisgarh","stateCode":"CG","lat":19.78981,"lng":82.54187,"yearsExperience":17,"languages":["hi","en"],"available":true},{"id":"paravet-cg204","type":"paravet","name":"Geeta Pandey Devi","phone":"917037090769","email":"geeta.pandey94@vetmail.in","qualification":"NDDB AI Technician + Animal Health","college":"DUVASU Mathura","licenseBody":"State Animal Husbandry Dept","registrationNumber":"PV/CG/2018/74928","village":"Khurd Nagar","city":"Kanpur","district":"Indore Rural","state":"Chhattisgarh","stateCode":"CG","lat":23.31976,"lng":82.00905,"yearsExperience":13,"languages":["hi"],"available":true},{"id":"paravet-cg205","type":"paravet","name":"Dr. Kavita Rao","phone":"918259039026","email":"kavita.rao39@vetmail.in","qualification":"Diploma in Animal Husbandry (DAH)","college":"WBUAFS Kolkata","licenseBody":"State Animal Husbandry Dept","registrationNumber":"PV/CG/2014/68619","village":"Khurd Kalan","city":"Raipur","district":"Raipur District","state":"Chhattisgarh","stateCode":"CG","lat":20.16198,"lng":80.02016,"yearsExperience":11,"languages":["hi","en"],"available":true},{"id":"vet-cg206","type":"vet","name":"Dr. Deepak Yadav","phone":"919975732355","email":"deepak.yadav68@vetmail.in","qualification":"BVSc & AH, MVSc (Surgery)","college":"KVAFSU Bidar","licenseBody":"Veterinary Council of India","registrationNumber":"VCI/CG/2015/90572","village":"Patti Khurd","city":"Ludhiana","district":"Raipur Rural","state":"Chhattisgarh","stateCode":"CG","lat":20.71491,"lng":81.4425,"yearsExperience":10,"languages":["hi","en"],"available":true},{"id":"vet-cg207","type":"vet","name":"Dr. Rajesh Devi","phone":"919453936454","email":"rajesh.devi23@vetmail.in","qualification":"BVSc & AH","college":"TANUVAS Chennai","licenseBody":"Veterinary Council of India","registrationNumber":"VCI/CG/2010/25357","village":null,"city":"Bhubaneswar","district":"Indore District","state":"Chhattisgarh","stateCode":"CG","lat":19.01604,"lng":81.98919,"yearsExperience":12,"languages":["hi","en"],"available":true},{"id":"paravet-cg208","type":"paravet","name":"Dr. Sunil Patel","phone":"918704387019","email":"sunil.patel17@vetmail.in","qualification":"BVSc & AH (Paravet extension)","college":"LUVAS Hisar","licenseBody":"State Animal Husbandry Dept","registrationNumber":"PV/CG/2021/39248","village":null,"city":"Guwahati","district":"Ahmedabad Rural","state":"Chhattisgarh","stateCode":"CG","lat":23.2822,"lng":79.5642,"yearsExperience":22,"languages":["hi"],"available":true},