[{"id":"paravet-ka0","type":"paravet","name":"Dr. Suman Devi","phone":"917089515946","email":"suman.devi70@vetmail.in","qualification":"Certificate in Livestock Health Worker (LHW)","college":"Rajasthan University of Veterinary Sciences","licenseBody":"State Animal Husbandry Dept","registrationNumber":"PV/KA/2013/56999","village":"Gangapur","city":"Ahmedabad","district":"Jaipur","state":"Karnataka","stateCode":"KA","lat":14.16855,"lng":79.13056,"yearsExperience":26,"languages":["hi"],"available":true},{"id":"vet-ka1","type":"vet","name":"Dr. Vijay Yadav","phone":"916280078087","email":"vijay.yadav52@vetmail.in","qualification":"BVSc & AH","college":"GBPUAT Pantnagar","licenseBody":"Veterinary Council of India","registrationNumber":"VCI/KA/2016/43316","village":null,"city":"Bhopal","district":"Mysuru","state":"Karnataka","stateCode":"KA","lat":13.64577,"lng":78.32863,"yearsExperience":22,"languages":["hi","en"],"available":true},{"id":"paravet-ka2","type":"paravet","name":"Dr. Meena Yadav","phone":"917680196093","email":"meena.yadav6@vetmail.in","qualification":"Certificate in Livestock Health Worker (LHW)","college":"KVK Extension","licenseBody":"State Animal Husbandry Dept","registrationNumber":"PV/KA/2019/32098","village":"Ramnagar Nagar","city":"Coimbatore","district":"Patna Rural","state":"Karnataka","stateCode":"KA","lat":13.25063,"lng":75.88185,"yearsExperience":24,"languages":["hi","en"],"available":true},{"id":"vet-ka3","type":"vet","name":"Dr. Lakshmi Patel","phone":"919928242829","email":"lakshmi.patel73@vetmail.in","qualification":"BVSc & AH, MVSc (Medicine)","college":"LUVAS Hisar","licenseBody":"Veterinary Council of India","registrationNumber":"VCI/KA/2010/31288","village":null,"city":"Kanpur","district":"Ranchi District","state":"Karnataka","stateCode":"KA","lat":13.78243,"lng":78.9888,"yearsExperience":24,"languages":["hi"],"available":true},{"id":"paravet-ka4","type":"paravet","name":"Dr. Pooja Mehta","phone":"917914649407","email":"pooja.mehta38@vetmail.in","qualification":"Diploma in Animal Husbandry (DAH)","college":"KVK Extension","licenseBody":"State Animal Husbandry Dept","registrationNumber":"PV/KA/2014/71951","village":"Ramnagar Nagar","city":"Kanpur","district":"Amritsar District","state":"Karnataka","stateCode":"KA","lat":14.9347,"lng":79.74749,"yearsExperience":8,"languages":["hi","en"],"available":true},{"id":"paravet-ka5","type":"paravet","name":"Dr. Dinesh Kaur","phone":"918393750764","email":"dinesh.kaur82@vetmail.in","qualification":"NDDB AI Technician + Animal Health","college":"GADVASU Ludhiana","licenseBody":"State Animal Husbandry Dept","registrationNumber":"PV/KA/2016/83433","village":"Basantpur Nagar","city":"Pune","district":"Kanpur District","state":"Karnataka","stateCode":"KA","lat":12.5046,"lng":79.29667,"yearsExperience":27,"languages":["hi","en"],"available":true},{"id":"vet-ka6","type":"vet","name":"Dr. Radha Mehta","phone":"917025562730","email":"radha.mehta62@vetmail.in","qualification":"BVSc & AH, MVSc (Medicine)","college":"MAFSU Nagpur","licenseBody":"Veterinary Council of India","registrationNumber":"VCI/KA/2011/34550","village":null,"city":"Jaipur","district":"Mysuru Rural","state":"Karnataka","stateCode":"KA","lat":13.26701,"lng":77.65003,"yearsExperience":28,"languages":["hi","en"],"available":true},{"id":"paravet-ka7","type":"paravet","name":"Dr. Geeta Patel","phone":"917241840402","email":"geeta.patel75@vetmail.in","qualification":"NDDB AI Technician + Animal Health","college":"OUAT Bhubaneswar","licenseBody":"State Animal Husbandry Dept","registrationNumber":"PV/KA/2011/62937","village":"Khurd Kalan","city":"Patna","district":"Ludhiana","state":"Karnataka","stateCode":"KA","lat":13.37078,"lng":75.5777,"yearsExperience":8,"languages":["hi"],"available":true},{"id":"vet-ka8","type":"vet","name":"Dr. Gopal Kaur","phone":"918145671931","email":"gopal.kaur91@vetmail.in","qualification":"BVSc & AH, MVSc","college":"Bihar Veterinary College","licenseBody":"Veterinary Council of India","registrationNumber":"VCI/KA/2020/66785","village":"Gangapur","city":"Guwahati","district":"Ranchi Rural","state":"Karnataka","stateCode":"KA","lat":11.15401,"lng":78.09421,"yearsExperience":10,"languages":["hi","en"],"available":true},{"id":"paravet-ka9","type":"paravet","name":"Dr. Gopal Singh","phone":"918129813104","email":"gopal.singh87@vetmail.in","qualification":"NDDB AI Technician + Animal Health","college":"KVK Extension","licenseBody":"State Animal Husbandry Dept","registrationNumber":"PV/KA/2013/64696","village":"Kishanpur Nagar","city":"Ahmedabad","district":"Ahmedabad","state":"Karnataka","stateCode":"KA","lat":14.04798,"lng":78.2207,"yearsExperience":6,"languages":["hi","en"],"available":true},{"id":"vet-ka10","type":"vet","name":"Dr. Dinesh Gupta","phone":"918114469889","email":"dinesh.gupta18@vetmail.in","qualification":"BVSc & AH","college":"WBUAFS Kolkata","licenseBody":"Veterinary Council of India","registrationNumber":"VCI/KA/2012/41416","village":null,"city":"Ahmedabad","district":"Lucknow","state":"Karnataka","stateCode":"KA","lat":13.36478,"lng":75.76258,"yearsExperience":21,"languages":["hi"],"available":true},{"id":"paravet-ka11","type":"paravet","name":"Dr. Rajesh Gupta","phone":"917433699132","email":"rajesh.gupta43@vetmail.in","qualification":"NDDB AI Technician + Animal Health","college":"GADVASU Ludhiana","licenseBody":"State Animal Husbandry Dept","registrationNumber":"PV/KA/2010/83918","village":"Kishanpur Kalan","city":"Nagpur","district":"Bhopal Rural","state":"Karnataka","stateCode":"KA","lat":12.0638,"lng":78.37353,"yearsExperience":22,"languages":["hi","en"],"available":true},{"id":"vet-ka12","type":"vet","name":"Dr. Ashok Mishra","phone":"919973157138","email":"ashok.mishra41@vetmail.in","qualification":"BVSc & AH","college":"OUAT Bhubaneswar","licenseBody":"Veterinary Council of India","registrationNumber":"VCI/KA/2020/97601","village":null,"city":"Agra","district":"Amritsar Rural","state":"Karnataka","stateCode":"KA","lat":15.10724,"lng":79.2027,"yearsExperience":10,"languages":["hi"],"available":true},{"id":"vet-ka13","type":"vet","name":"Radha Rao Devi","phone":"917451806321","email":"radha.rao21@vetmail.in","qualification":"BVSc & AH, MVSc (Surgery)","college":"IVRI Bareilly","licenseBody":"Veterinary Council of India","registrationNumber":"VCI/KA/2015/95968","village":"Ramnagar","city":"Nagpur","district":"Nagpur","state":"Karnataka","stateCode":"KA","lat":11.72247,"lng":79.1302,"yearsExperience":6,"languages":["hi","en"],"available":false},{"id":"vet-ka14","type":"vet","name":"Dr. Kavita Joshi","phone":"918326024427","email":"kavita.joshi88@vetmail.in","qualification":"BVSc & AH, MVSc (Medicine)","college":"Kerala Veterinary University","licenseBody":"Veterinary Council of India","registrationNumber":"VCI/KA/2020/35077","village":"Devgarh","city":"Bhubaneswar","district":"Ranchi","state":"Karnataka","stateCode":"KA","lat":14.79788,"lng":75.5996,"yearsExperience":9,"languages":["hi"],"available":true},{"id":"vet-ka15","type":"vet","name":"Gopal Devi Devi","phone":"916471202135","email":"gopal.devi71@vetmail.in","qualification":"BVSc & AH, MVSc","college":"MAFSU Nagpur","licenseBody":"Veterinary Council of India","registrationNumber":"VCI/KA/2021/73381","village":"Bajpur Khurd","city":"Ludhiana","district":"Lucknow District","state":"Karnataka","stateCode":"KA","lat":10.72707,"lng":78.11358,"yearsExperience":21,"languages":["hi","en"],"available":true},{"id":"paravet-ka16","type":"paravet","name":"Dr. Gopal Kumar","phone":"918522101723","email":"gopal.kumar0@vetmail.in","qualification":"Diploma in Animal Husbandry (DAH)","college":"OUAT Bhubaneswar","licenseBody":"State Animal Husbandry Dept","registrationNumber":"PV/KA/2014/13761","village":null,"city":"Raipur","district":"Jaipur","state":"Karnataka","stateCode":"KA","lat":12.29509,"lng":77.22239,"yearsExperience":10,"languages":["hi"],"available":true},{"id":"vet-ka17","type":"vet","name":"Dr. Anita Choudhary","phone":"917137297057","email":"anita.choudhary41@vetmail.in","qualification":"BVSc & AH, MVSc","college":"GADVASU Ludhiana","licenseBody":"Veterinary Council of India","registrationNumber":"VCI/KA/2014/89081","village":"Shivpuri Khurd","city":"Agra","district":"Indore Rural","state":"Karnataka","stateCode":"KA","lat":12.13926,"lng":77.8659,"yearsExperience":18,"languages":["hi","en"],"available":true},{"id":"paravet-ka18","type":"paravet","name":"Dr. Meena Mehta","phone":"919129884460","email":"meena.mehta24@vetmail.in","qualification":"Diploma in Animal Husbandry (DAH)","college":"OUAT Bhubaneswar","licenseBody":"State Animal Husbandry Dept","registrationNumber":"PV/KA/2020/40633","village":null,"city":"Bhubaneswar","district":"Hubballi District","state":"Karnataka","stateCode":"KA","lat":12.941,"lng":76.52124,"yearsExperience":16,"languages":["hi","en"],"available":true},{"id":"paravet-ka19","type":"paravet","name":"Dr. Pooja Reddy","phone":"919437498188","email":"pooja.reddy28@vetmail.in","qualification":"Certificate in Livestock Health Worker (LHW)","college":"AAU Anand","licenseBody":"State Animal Husbandry Dept","registrationNumber":"PV/KA/2014/87931","village":null,"city":"Madurai","district":"Surat District","state":"Karnataka","stateCode":"KA","lat":12.1585,"lng":79.53822,"yearsExperience":12,"languages":["hi","en"],"available":true},{"id":"paravet-ka20","type":"paravet","name":"Dr. Rekha Yadav","phone":"918983520034","email":"rekha.yadav71@vetmail.in","qualification":"Certificate in Livestock Health Worker (LHW)","college":"GADVASU Ludhiana","licenseBody":"State Animal Husbandry Dept","registrationNumber":"PV/KA/2018/94522","village":"Govindpur Nagar","city":"Patna","district":"Jaipur District","state":"Karnataka","stateCode":"KA","lat":13.99935,"lng":76.21934,"yearsExperience":2,"languages":["hi","en"],"available":true},{"id":"vet-ka21","type":"vet","name":"Dr. Kavita Nair","phone":"918690817611","email":"kavita.nair6@vetmail.in","qualification":"BVSc & AH","college":"TANUVAS Chennai","licenseBody":"Veterinary Council of India","registrationNumber":"VCI/KA/2010/13910","village":"Rampur Khurd","city":"Guwahati","district":"Pune District","state":"Karnataka","stateCode":"KA","lat":13.39732,"lng":77.65507,"yearsExperience":14,"languages":["hi","en"],"available":true},{"id":"vet-ka22","type":"vet","name":"Dr. Ravi Kumar","phone":"919304222032","email":"ravi.kumar94@vetmail.in","qualification":"BVSc & AH, MVSc","college":"Rajasthan University of Veterinary Sciences","licenseBody":"Veterinary Council of India","registrationNumber":"VCI/KA/2011/49557","village":"Lakhanpur Kalan","city":"Lucknow","district":"Raipur District","state":"Karnataka","stateCode":"KA","lat":11.51291,"lng":75.70955,"yearsExperience":7,"languages":["hi","en"],"available":false},{"id":"paravet-ka23","type":"paravet","name":"Dr. Pooja Das","phone":"918368000910","email":"pooja.das20@vetmail.in","qualification":"Certificate in Livestock Health Worker (LHW)","college":"Kerala Veterinary University","licenseBody":"State Animal Husbandry Dept","registrationNumber":"PV/KA/2021/68274","village":null,"city":"Rajkot","district":"Indore District","state":"Karnataka","stateCode":"KA","lat":14.41568,"lng":79.34493,"yearsExperience":25,"languages":["hi"],"available":true},{"id":"paravet-ka24","type":"paravet","name":"Mohan Das Devi","phone":"916986809578","email":"mohan.das4@vetmail.in","qualification":"Certificate in Livestock Health Worker (LHW)","college":"GBPUAT Pantnagar","licenseBody":"State Animal Husbandry Dept","registrationNumber":"PV/KA/2017/69012","village":"Sitapur Nagar","city":"Varanasi","district":"Bhopal District","state":"Karnataka","stateCode":"KA","lat":12.49472,"lng":75.80643,"yearsExperience":16,"languages":["hi"],"available":true},{"id":"paravet-ka25","type":"paravet","name":"Dr. Geeta Choudhary","phone":"919658726656","email":"geeta.choudhary6@vetmail.in","qualification":"Diploma in Animal Husbandry (DAH)","college":"State AH Department Training","licenseBody":"State Animal Husbandry Dept","registrationNumber":"PV/KA/2016/35640","village":"Sultanpur","city":"Guwahati","district":"Jaipur","state":"Karnataka","stateCode":"KA","lat":15.11394,"lng":78.33916,"yearsExperience":25,"languages":["hi","en"],"available":true},{"id":"vet-ka26","type":"vet","name":"Dr. Meena Joshi","phone":"917181611920","email":"meena.joshi63@vetmail.in","qualification":"BVSc & AH, MVSc","college":"AAU Anand","licenseBody":"Veterinary Council of India","registrationNumber":"VCI/KA/2010/14379","village":"Devgarh Kalan","city":"Nagpur","district":"Mysuru","state":"Karnataka","stateCode":"KA","lat":12.12724,"lng":76.71561,"yearsExperience":25,"languages":["hi"],"available":true},{"id":"paravet-ka27","type":"paravet","name":"Dr. Lakshmi Devi","phone":"919187214254","email":"lakshmi.devi79@vetmail.in","qualification":"Diploma in Animal Husbandry (DAH)","college":"OUAT Bhubaneswar","licenseBody":"State Animal Husbandry Dept","registrationNumber":"PV/KA/2021/73658","village":"Kheri Nagar","city":"Bhubaneswar","district":"Indore District","state":"Karnataka","stateCode":"KA","lat":11.39276,"lng":78.9864,"yearsExperience":1,"languages":["hi"],"available":true},{"id":"paravet-ka28","type":"paravet","name":"Vinod Pandey Devi","phone":"919935146564","email":"vinod.pandey40@vetmail.in","qualification":"Diploma in Animal Husbandry (DAH)","college":"KVAFSU Bidar","licenseBody":"State Animal Husbandry Dept","registrationNumber":"PV/KA/2014/97003","village":"Bajpur Kalan","city":"Ahmedabad","district":"Bhopal","state":"Karnataka","stateCode":"KA","lat":13.23544,"lng":77.03085,"yearsExperience":16,"languages":["hi"],"available":true},{"id":"vet-ka29","type":"vet","name":"Dr. Lakshmi Devi","phone":"916584333219","email":"lakshmi.devi54@vetmail.in","qualification":"BVSc & AH, MVSc (Surgery)","college":"Rajasthan University of Veterinary Sciences","licenseBody":"Veterinary Council of India","registrationNumber":"VCI/KA/2011/34632","village":"Devgarh Nagar","city":"Guwahati","district":"Nagpur District","state":"Karnataka","stateCode":"KA","lat":15.06284,"lng":76.9899,"yearsExperience":5,"languages":["hi","en"],"available":true},{"id":"paravet-ka30","type":"paravet","name":"Dr. Sanjay Sharma","phone":"918183027149","email":"sanjay.sharma35@vetmail.in","qualification":"Certificate in Livestock Health Worker (LHW)","college":"IVRI Bareilly","licenseBody":"State Animal Husbandry Dept","registrationNumber":"PV/KA/2018/97581","village":"Bharatpur","city":"Meerut","district":"Guwahati District","state":"Karnataka","stateCode":"KA","lat":14.90481,"lng":79.48317,"yearsExperience":21,"languages":["hi"],"available":true},{"id":"vet-ka31","type":"vet","name":"Dr. Sunita Singh","phone":"917691939544","email":"sunita.singh6@vetmail.in","qualification":"BVSc & AH, MVSc (Medicine)","college":"Rajasthan University of Veterinary Sciences","licenseBody":"Veterinary Council of India","registrationNumber":"VCI/KA/2012/16894","village":"Gangapur Khurd","city":"Varanasi","district":"Raipur Rural","state":"Karnataka","stateCode":"KA","lat":11.61802,"lng":79.78919,"yearsExperience":2,"languages":["hi","en"],"available":true},{"id":"vet-ka32","type":"vet","name":"Dr. Anita Singh","phone":"918410177391","email":"anita.singh17@vetmail.in","qualification":"BVSc & AH, MVSc","college":"TANUVAS Chennai","licenseBody":"Veterinary Council of India","registrationNumber":"VCI/KA/2010/46618","village":null,"city":"Ranchi","district":"Indore District","state":"Karnataka","stateCode":"KA","lat":11.02598,"lng":77.52011,"yearsExperience":16,"languages":["hi","en"],"available":true},{"id":"vet-ka33","type":"vet","name":"Dr. Geeta Mishra","phone":"916268849766","email":"geeta.mishra73@vetmail.in","qualification":"BVSc & AH","college":"Rajasthan University of Veterinary Sciences","licenseBody":"Veterinary Council of India","registrationNumber":"VCI/KA/2015/65622","village":null,"city":"Varanasi","district":"Lucknow District","state":"Karnataka","stateCode":"KA","lat":12.94154,"lng":76.98487,"yearsExperience":12,"languages":["hi"],"available":true},{"id":"vet-ka34","type":"vet","name":"Dr. Vijay Das","phone":"918783844063","email":"vijay.das27@vetmail.in","qualification":"BVSc & AH, MVSc","college":"AAU Anand","licenseBody":"Veterinary Council of India","registrationNumber":"VCI/KA/2019/81739","village":"Rampur","city":"Pune","district":"Patna District","state":"Karnataka","stateCode":"KA","lat":11.17181,"lng":79.27895,"yearsExperience":15,"languages":["hi","en"],"available":true},{"id":"vet-ka35","type":"vet","name":"Dr. Rekha Nair","phone":"919611544979","email":"rekha.nair11@vetmail.in","qualification":"BVSc & AH, MVSc (Surgery)","college":"GADVASU Ludhiana","licenseBody":"Veterinary Council of India","registrationNumber":"VCI/KA/2022/50183","village":"Mohanpur Kalan","city":"Agra","district":"Varanasi Rural","state":"Karnataka","stateCode":"KA","lat":10.75185,"lng":78.75373,"yearsExperience":13,"languages":["hi","en"],"available":true},{"id":"vet-ka36","type":"vet","name":"Dr. Amit Reddy","phone":"919750326334","email":"amit.reddy32@vetmail.in","qualification":"BVSc & AH, MVSc (Surgery)","college":"LUVAS Hisar","licenseBody":"Veterinary Council of India","registrationNumber":"VCI/KA/2019/59397","village":"Nandgaon Nagar","city":"Guwahati","district":"Hubballi","state":"Karnataka","stateCode":"KA","lat":13.59763,"lng":76.59523,"yearsExperience":24,"languages":["hi","en"],"available":true},{"id":"vet-ka37","type":"vet","name":"Dr. Lakshmi Das","phone":"918516289111","email":"lakshmi.das40@vetmail.in","qualification":"BVSc & AH, MVSc (Surgery)","college":"DUVASU Mathura","licenseBody":"Veterinary Council of India","registrationNumber":"VCI/KA/2019/82594","village":null,"city":"Guwahati","district":"Jaipur","state":"Karnataka","stateCode":"KA","lat":14.05623,"lng":77.06958,"yearsExperience":10,"languages":["hi","en"],"available":true},{"id":"vet-ka38","type":"vet","name":"Dr. Sarita Thakur","phone":"916729907444","email":"sarita.thakur67@vetmail.in","qualification":"BVSc & AH, MVSc (Surgery)","college":"KVAFSU Bidar","licenseBody":"Veterinary Council of India","registrationNumber":"VCI/KA/2011/39777","village":null,"city":"Patna","district":"Rajkot Rural","state":"Karnataka","stateCode":"KA","lat":11.32474,"lng":78.94822,"yearsExperience":14,"languages":["hi","en"],"available":false},{"id":"vet-ka39","type":"vet","name":"Dr. Dinesh Kaur","phone":"916922216085","email":"dinesh.kaur94@vetmail.in","qualification":"BVSc & AH","college":"AAU Anand","licenseBody":"Veterinary Council of India","registrationNumber":"VCI/KA/2020/32292","village":"Sultanpur Nagar","city":"Amritsar","district":"Surat","state":"Karnataka","stateCode":"KA","lat":12.65766,"lng":75.87223,"yearsExperience":27,"languages":["hi","en"],"available":false},{"id":"paravet-ka40","type":"paravet","name":"Dr. Suman Pandey","phone":"917190806683","email":"suman.pandey32@vetmail.in","qualification":"Certificate in Livestock Health Worker (LHW)","college":"KVAFSU Bidar","licenseBody":"State Animal Husbandry Dept","registrationNumber":"PV/KA/2021/97692","village":"Patti Khurd","city":"Nagpur","district":"Jaipur District","state":"Karnataka","stateCode":"KA","lat":12.54509,"lng":77.99419,"yearsExperience":3,"languages":["hi","en"],"available":true},{"id":"paravet-ka41","type":"paravet","name":"Dr. Pooja Singh","phone":"916920299121","email":"pooja.singh23@vetmail.in","qualification":"NDDB AI Technician + Animal Health","college":"WBUAFS Kolkata","licenseBody":"State Animal Husbandry Dept","registrationNumber":"PV/KA/2017/41621","village":null,"city":"Guwahati","district":"Jaipur","state":"Karnataka","stateCode":"KA","lat":14.66673,"lng":78.55481,"yearsExperience":17,"languages":["hi","en"],"available":true},{"id":"paravet-ka42","type":"paravet","name":"Dr. Amit Mehta","phone":"919266077977","email":"amit.mehta57@vetmail.in","qualification":"BVSc & AH (Paravet extension)","college":"WBUAFS Kolkata","licenseBody":"State Animal Husbandry Dept","registrationNumber":"PV/KA/2015/76808","village":"Bajpur Khurd","city":"Bhopal","district":"Pune Rural","state":"Karnataka","stateCode":"KA","lat":13.76873,"lng":79.49927,"yearsExperience":15,"languages":["hi"],"available":true},{"id":"vet-ka43","type":"vet","name":"Dr. Vijay Choudhary","phone":"919383277863","email":"vijay.choudhary85@vetmail.in","qualification":"BVSc & AH, MVSc (Surgery)","college":"LUVAS Hisar","licenseBody":"Veterinary Council of India","registrationNumber":"VCI/KA/2020/85275","village":null,"city":"Coimbatore","district":"Hubballi Rural","state":"Karnataka","stateCode":"KA","lat":14.72518,"lng":76.02362,"yearsExperience":9,"languages":["hi"],"available":true},{"id":"paravet-ka44","type":"paravet","name":"Dr. Sarita Das","phone":"919916444950","email":"sarita.das91@vetmail.in","qualification":"Diploma in Animal Husbandry (DAH)","college":"Kerala Veterinary University","licenseBody":"State Animal Husbandry Dept","registrationNumber":"PV/KA/2014/14595","village":"Sitapur Kalan","city":"Agra","district":"Nagpur District","state":"Karnataka","stateCode":"KA","lat":12.70676,"lng":77.20468,"yearsExperience":23,"languages":["hi","en"],"available":true},{"id":"vet-ka45","type":"vet","name":"Dr. Mohan Gupta","phone":"919006404750","email":"mohan.gupta86@vetmail.in","qualification":"BVSc & AH, MVSc (Surgery)","college":"GBPUAT Pantnagar","licenseBody":"Veterinary Council of India","registrationNumber":"VCI/KA/2017/42034","village":"Kishanpur","city":"Guwahati","district":"Amritsar","state":"Karnataka","stateCode":"KA","lat":12.13643,"lng":76.39993,"yearsExperience":16,"languages":["hi"],"available":true},{"id":"paravet-ka46","type":"paravet","name":"Dr. Amit Devi","phone":"917559501081","email":"amit.devi65@vetmail.in","qualification":"Certificate in Livestock Health Worker (LHW)","college":"KVAFSU Bidar","licenseBody":"State Animal Husbandry Dept","registrationNumber":"PV/KA/2013/33773","village":"Sitapur Khurd","city":"Jaipur","district":"Surat Rural","state":"Karnataka","stateCode":"KA","lat":12.03994,"lng":76.55565,"yearsExperience":22,"languages":["hi"],"available":true},{"id":"paravet-ka47","type":"paravet","name":"Dr. Geeta Devi","phone":"917706879867","email":"geeta.devi22@vetmail.in","qualification":"Certificate in Livestock Health Worker (LHW)","college":"IVRI Bareilly","licenseBody":"State Animal Husbandry Dept","registrationNumber":"PV/KA/2016/84539","village":"Kheri","city":"Raipur","district":"Coimbatore Rural","state":"Karnataka","stateCode":"KA","lat":11.0265,"lng":75.73869,"yearsExperience":10,"languages":["hi"],"available":true},{"id":"vet-ka48","type":"vet","name":"Dr. Rekha Kumar","phone":"919131986382","email":"rekha.kumar13@vetmail.in","qualification":"BVSc & AH","college":"MAFSU Nagpur","licenseBody":"Veterinary Council of India","registrationNumber":"VCI/KA/2022/21786","village":"Shivpuri Khurd","city":"Nagpur","district":"Pune Rural","state":"Karnataka","stateCode":"KA","lat":11.40917,"lng":79.62606,"yearsExperience":17,"languages":["hi","en"],"available":true},{"id":"paravet-ka49","type":"paravet","name":"Dr. Amit Rao","phone":"918424932531","email":"amit.rao18@vetmail.in","qualification":"Certificate in Livestock Health Worker (LHW)","college":"State AH Department Training","licenseBody":"State Animal Husbandry Dept","registrationNumber":"PV/KA/2016/95304","village":"Kishanpur","city":"Lucknow","district":"Indore District","state":"Karnataka","stateCode":"KA","lat":12.44303,"lng":79.74823,"yearsExperience":10,"languages":["hi"],"available":true},{"id":"vet-ka50","type":"vet","name":"Dr. Meena Das","phone":"918409491973","email":"meena.das90@vetmail.in","qualification":"BVSc & AH","college":"GBPUAT Pantnagar","licenseBody":"Veterinary Council of India","registrationNumber":"VCI/KA/2010/94312","village":null,"city":"Rajkot","district":"Amritsar Rural","state":"Karnataka","stateCode":"KA","lat":12.89227,"lng":76.54276,"yearsExperience":10,"languages":["hi","en"],"available":true},{"id":"vet-ka51","type":"vet","name":"Dr. Amit Choudhary","phone":"916694900943","email":"amit.choudhary26@vetmail.in","qualification":"BVSc & AH, MVSc","college":"GADVASU Ludhiana","licenseBody":"Veterinary Council of India","registrationNumber":"VCI/KA/2010/41368","village":null,"city":"Ranchi","district":"Nagpur","state":"Karnataka","stateCode":"KA","lat":11.46833,"lng":79.65617,"yearsExperience":20,"languages":["hi","en"],"available":true},{"id":"vet-ka52","type":"vet","name":"Dr. Kavita Gupta","phone":"918977610885","email":"kavita.gupta22@vetmail.in","qualification":"BVSc & AH, MVSc","college":"GADVASU Ludhiana","licenseBody":"Veterinary Council of India","registrationNumber":"VCI/KA/2014/97790","village":"Ramnagar Khurd","city":"Meerut","district":"Madurai District","state":"Karnataka","stateCode":"KA","lat":11.07598,"lng":77.50265,"yearsExperience":11,"languages":["hi","en"],"available":true},{"id":"vet-ka53","type":"vet","name":"Dr. Meena Nair","phone":"919099113351","email":"meena.nair32@vetmail.in","qualification":"BVSc & AH, MVSc (Surgery)","college":"IVRI Bareilly","licenseBody":"Veterinary Council of India","registrationNumber":"VCI/KA/2023/11483","village":"Krishnapur Khurd","city":"Surat","district":"Coimbatore Rural","state":"Karnataka","stateCode":"KA","lat":12.98915,"lng":77.07861,"yearsExperience":27,"languages":["hi","en"],"available":true},{"id":"paravet-ka54","type":"paravet","name":"Dr. Priya Kumar","phone":"919755278128","email":"priya.kumar62@vetmail.in","qualification":"NDDB AI Technician + Animal Health","college":"KVK Extension","licenseBody":"State Animal Husbandry Dept","registrationNumber":"PV/KA/2014/32863","village":null,"city":"Guwahati","district":"Amritsar District","state":"Karnataka","stateCode":"KA","lat":12.29184,"lng":79.11242,"yearsExperience":12,"languages":["hi","en"],"available":true},{"id":"vet-ka55","type":"vet","name":"Rajesh Kaur Devi","phone":"916949121262","email":"rajesh.kaur15@vetmail.in","qualification":"BVSc & AH, MVSc (Medicine)","college":"AAU Anand","licenseBody":"Veterinary Council of India","registrationNumber":"VCI/KA/2010/97311","village":"Khurd","city":"Ranchi","district":"Coimbatore Rural","state":"Karnataka","stateCode":"KA","lat":10.80684,"lng":77.41811,"yearsExperience":16,"languages":["hi","en"],"available":true},{"id":"vet-ka56","type":"vet","name":"Dr. Dinesh Kumar","phone":"919226547741","email":"dinesh.kumar66@vetmail.in","qualification":"BVSc & AH","college":"GBPUAT Pantnagar","licenseBody":"Veterinary Council of India","registrationNumber":"VCI/KA/2012/27155","village":"Ramnagar Nagar","city":"Madurai","district":"Madurai","state":"Karnataka","stateCode":"KA","lat":12.09669,"lng":77.61197,"yearsExperience":27,"languages":["hi"],"available":true},{"id":"paravet-ka57","type":"paravet","name":"Dr. Vijay Mishra","phone":"917603981944","email":"vijay.mishra25@vetmail.in","qualification":"NDDB AI Technician + Animal Health","college":"Bihar Veterinary College","licenseBody":"State Animal Husbandry Dept","registrationNumber":"PV/KA/2012/53005","village":"Gangapur Khurd","city":"Bhopal","district":"Surat Rural","state":"Karnataka","stateCode":"KA","lat":14.63319,"lng":77.50959,"yearsExperience":25,"languages":["hi"],"available":true},{"id":"vet-ka58","type":"vet","name":"Dr. Sunita Choudhary","phone":"916604332091","email":"sunita.choudhary50@vetmail.in","qualification":"BVSc & AH, MVSc (Surgery)","college":"IVRI Bareilly","licenseBody":"Veterinary Council of India","registrationNumber":"VCI/KA/2021/37886","village":"Gangapur Kalan","city":"Jaipur","district":"Madurai District","state":"Karnataka","stateCode":"KA","lat":14.72057,"lng":79.8315,"yearsExperience":27,"languages":["hi","en"],"available":true},{"id":"paravet-ka59","type":"paravet","name":"Dr. Ravi Thakur","phone":"919557920381","email":"ravi.thakur35@vetmail.in","qualification":"Certificate in Livestock Health Worker (LHW)","college":"IVRI Bareilly","licenseBody":"State Animal Husbandry Dept","registrationNumber":"PV/KA/2021/88917","village":"Gangapur","city":"Coimbatore","district":"Meerut District","state":"Karnataka","stateCode":"KA","lat":13.63903,"lng":77.4512,"yearsExperience":22,"languages":["hi"],"available":true},{"id":"vet-ka60","type":"vet","name":"Dr. Arun Thakur","phone":"918974538953","email":"arun.thakur11@vetmail.in","qualification":"BVSc & AH","college":"KVAFSU Bidar","licenseBody":"Veterinary Council of India","registrationNumber":"VCI/KA/2018/95247","village":"Bajpur Khurd","city":"Kanpur","district":"Meerut District","state":"Karnataka","stateCode":"KA","lat":10.84147,"lng":79.41697,"yearsExperience":24,"languages":["hi","en"],"available":false},{"id":"paravet-ka61","type":"paravet","name":"Dr. Rekha Mehta","phone":"919392150415","email":"rekha.mehta62@vetmail.in","qualification":"Certificate in Livestock Health Worker (LHW)","college":"LUVAS Hisar","licenseBody":"State Animal Husbandry Dept","registrationNumber":"PV/KA/2020/78106","village":"Bajpur Nagar","city":"Pune","district":"Ludhiana","state":"Karnataka","stateCode":"KA","lat":14.1086,"lng":75.63908,"yearsExperience":2,"languages":["hi","en"],"available":true},{"id":"vet-ka62","type":"vet","name":"Dr. Rekha Devi","phone":"919680644788","email":"rekha.devi4@vetmail.in","qualification":"BVSc & AH, MVSc","college":"AAU Anand","licenseBody":"Veterinary Council of India","registrationNumber":"VCI/KA/2010/34870","village":"Bharatpur Kalan","city":"Mysuru","district":"Agra District","state":"Karnataka","stateCode":"KA","lat":11.64308,"lng":76.85451,"yearsExperience":9,"languages":["hi","en"],"available":false},{"id":"paravet-ka63","type":"paravet","name":"Dr. Pooja Thakur","phone":"916911643602","email":"pooja.thakur67@vetmail.in","qualification":"NDDB AI Technician + Animal Health","college":"KVK Extension","licenseBody":"State Animal Husbandry Dept","registrationNumber":"PV/KA/2019/94007","village":"Gangapur Kalan","city":"Agra","district":"Raipur","state":"Karnataka","stateCode":"KA","lat":12.73816,"lng":77.24219,"yearsExperience":9,"languages":["hi"],"available":true},{"id":"paravet-ka64","type":"paravet","name":"Dr. Neha Patel","phone":"918188090939","email":"neha.patel58@vetmail.in","qualification":"NDDB AI Technician + Animal Health","college":"IVRI Bareilly","licenseBody":"State Animal Husbandry Dept","registrationNumber":"PV/KA/2021/61657","village":"Nandgaon Nagar","city":"Mysuru","district":"Indore Rural","state":"Karnataka","stateCode":"KA","lat":13.16554,"lng":78.89288,"yearsExperience":4,"languages":["hi","en"],"available":true},{"id":"vet-ka65","type":"vet","name":"Dr. Sunil Pandey","phone":"916561338030","email":"sunil.pandey26@vetmail.in","qualification":"BVSc & AH","college":"Assam Agricultural University","licenseBody":"Veterinary Council of India","registrationNumber":"VCI/KA/2013/97758","village":null,"city":"Ahmedabad","district":"Indore District","state":"Karnataka","stateCode":"KA","lat":15.13587,"lng":79.39895,"yearsExperience":14,"languages":["hi"],"available":false},{"id":"paravet-ka66","type":"paravet","name":"Dr. Dinesh Patel","phone":"917342799225","email":"dinesh.patel86@vetmail.in","qualification":"Diploma in Animal Husbandry (DAH)","college":"Kerala Veterinary University","licenseBody":"State Animal Husbandry Dept","registrationNumber":"PV/KA/2017/71439","village":"Kheri Kalan","city":"Jaipur","district":"Raipur","state":"Karnataka","stateCode":"KA","lat":13.55638,"lng":76.23863,"yearsExperience":24,"languages":["hi","en"],"available":true},{"id":"vet-ka67","type":"vet","name":"Dr. Meena Nair","phone":"917228227565","email":"meena.nair32@vetmail.in","qualification":"BVSc & AH, MVSc (Medicine)","college":"Bihar Veterinary College","licenseBody":"Veterinary Council of India","registrationNumber":"VCI/KA/2014/61912","village":"Ramnagar Kalan","city":"Surat","district":"Hubballi District","state":"Karnataka","stateCode":"KA","lat":14.20258,"lng":76.64946,"yearsExperience":5,"languages":["hi","en"],"available":true},{"id":"paravet-ka68","type":"paravet","name":"Dr. Sarita Singh","phone":"916800514464","email":"sarita.singh33@vetmail.in","qualification":"Certificate in Livestock Health Worker (LHW)","college":"Kerala Veterinary University","licenseBody":"State Animal Husbandry Dept","registrationNumber":"PV/KA/2016/56151","village":null,"city":"Bhopal","district":"Ranchi","state":"Karnataka","stateCode":"KA","lat":13.92532,"lng":79.6174,"yearsExperience":25,"languages":["hi","en"],"available":true},{"id":"paravet-ka69","type":"paravet","name":"Dr. Ashok Joshi","phone":"917087419828","email":"ashok.joshi90@vetmail.in","qualification":"Certificate in Livestock Health Worker (LHW)","college":"TANUVAS Chennai","licenseBody":"State Animal Husbandry Dept","registrationNumber":"PV/KA/2015/31838","village":"Patti Nagar","city":"Pune","district":"Patna District","state":"Karnataka","stateCode":"KA","lat":14.88193,"lng":77.47755,"yearsExperience":4,"languages":["hi","en"],"available":true},{"id":"paravet-ka70","type":"paravet","name":"Dr. Ravi Joshi","phone":"916231419343","email":"ravi.joshi73@vetmail.in","qualification":"Certificate in Livestock Health Worker (LHW)","college":"WBUAFS Kolkata","licenseBody":"State Animal Husbandry Dept","registrationNumber":"PV/KA/2010/46725","village":"Sonpur","city":"Ludhiana","district":"Nagpur","state":"Karnataka","stateCode":"KA","lat":13.06897,"lng":76.58234,"yearsExperience":8,"languages":["hi","en"],"available":true},{"id":"vet-ka71","type":"vet","name":"Dr. Manoj Sharma","phone":"919381132126","email":"manoj.sharma53@vetmail.in","qualification":"BVSc & AH, MVSc (Surgery)","college":"AAU Anand","licenseBody":"Veterinary Council of India","registrationNumber":"VCI/KA/2023/76152","village":"Govindpur Nagar","city":"Nagpur","district":"Ahmedabad Rural","state":"Karnataka","stateCode":"KA","lat":13.44823,"lng":78.07159,"yearsExperience":2,"languages":["hi","en"],"available":true},{"id":"paravet-ka72","type":"paravet","name":"Dr. Ashok Kaur","phone":"918463907911","email":"ashok.kaur37@vetmail.in","qualification":"BVSc & AH (Paravet extension)","college":"TANUVAS Chennai","licenseBody":"State Animal Husbandry Dept","registrationNumber":"PV/KA/2023/39103","village":"Chandpur Nagar","city":"Ranchi","district":"Meerut","state":"Karnataka","stateCode":"KA","lat":13.82224,"lng":77.92394,"yearsExperience":5,"languages":["hi","en"],"available":true},{"id":"paravet-ka73","type":"paravet","name":"Dr. Kavita Devi","phone":"916635872428","email":"kavita.devi30@vetmail.in","qualification":"Diploma in Animal Husbandry (DAH)","college":"TANUVAS Chennai","licenseBody":"State Animal Husbandry Dept","registrationNumber":"PV/KA/2017/66011","village":"Rampur Khurd","city":"Ahmedabad","district":"Mysuru","state":"Karnataka","stateCode":"KA","lat":12.73453,"lng":78.4739,"yearsExperience":5,"languages":["hi","en"],"available":true},{"id":"paravet-ka74","type":"paravet","name":"Dr. Suman Kumar","phone":"919175975635","email":"suman.kumar86@vetmail.in","qualification":"NDDB AI Technician + Animal Health","college":"MAFSU Nagpur","licenseBody":"State Animal Husbandry Dept","registrationNumber":"PV/KA/2022/54517","village":"Sultanpur Kalan","city":"Coimbatore","district":"Hubballi District","state":"Karnataka","stateCode":"KA","lat":10.73512,"lng":75.91682,"yearsExperience":27,"languages":["hi"],"available":true},{"id":"paravet-ka75","type":"paravet","name":"Dr. Sanjay Das","phone":"917689632166","email":"sanjay.das26@vetmail.in","qualification":"NDDB AI Technician + Animal Health","college":"State AH Department Training","licenseBody":"State Animal Husbandry Dept","registrationNumber":"PV/KA/2022/75481","village":"Sonpur Kalan","city":"Hubballi","district":"Surat District","state":"Karnataka","stateCode":"KA","lat":13.10156,"lng":76.99266,"yearsExperience":5,"languages":["hi","en"],"available":true},{"id":"paravet-ka76","type":"paravet","name":"Dr. Dinesh Joshi","phone":"918170275989","email":"dinesh.joshi39@vetmail.in","qualification":"Diploma in Animal Husbandry (DAH)","college":"KVAFSU Bidar","licenseBody":"State Animal Husbandry Dept","registrationNumber":"PV/KA/2021/59341","village":"Rampur","city":"Ludhiana","district":"Patna Rural","state":"Karnataka","stateCode":"KA","lat":15.215,"lng":76.39887,"yearsExperience":6,"languages":["hi","en"],"available":true},{"id":"paravet-ka77","type":"paravet","name":"Dr. Suman Yadav","phone":"917851318029","email":"suman.yadav47@vetmail.in","qualification":"BVSc & AH (Paravet extension)","college":"DUVASU Mathura","licenseBody":"State Animal Husbandry Dept","registrationNumber":"PV/KA/2021/98953","village":"Devgarh Nagar","city":"Jaipur","district":"Jaipur Rural","state":"Karnataka","stateCode":"KA","lat":12.21677,"lng":78.56875,"yearsExperience":28,"languages":["hi"],"available":true},{"id":"paravet-ka78","type":"paravet","name":"Dr. Geeta Reddy","phone":"917147006318","email":"geeta.reddy72@vetmail.in","qualification":"Diploma in Animal Husbandry (DAH)","college":"AAU Anand","licenseBody":"State Animal Husbandry Dept","registrationNumber":"PV/KA/2015/77723","village":"Ramnagar Khurd","city":"Agra","district":"Coimbatore District","state":"Karnataka","stateCode":"KA","lat":15.03719,"lng":79.71734,"yearsExperience":26,"languages":["hi","en"],"available":true},{"id":"paravet-ka79","type":"paravet","name":"Dr. Pooja Verma","phone":"918409930486","email":"pooja.verma98@vetmail.in","qualification":"Certificate in Livestock Health Worker (LHW)","college":"Rajasthan University of Veterinary Sciences","licenseBody":"State Animal Husbandry Dept","registrationNumber":"PV/KA/2023/37313","village":"Bajpur Khurd","city":"Mysuru","district":"Bhopal District","state":"Karnataka","stateCode":"KA","lat":13.6955,"lng":75.99541,"yearsExperience":20,"languages":["hi","en"],"available":true},{"id":"vet-ka80","type":"vet","name":"Sarita Patel Devi","phone":"918673179093","email":"sarita.patel52@vetmail.in","qualification":"BVSc & AH, MVSc","college":"KVAFSU Bidar","licenseBody":"Veterinary Council of India","registrationNumber":"VCI/KA/2023/72904","village":"Ramnagar Khurd","city":"Agra","district":"Rajkot","state":"Karnataka","stateCode":"KA","lat":14.58369,"lng":78.25741,"yearsExperience":8,"languages":["hi"],"available":true},{"id":"paravet-ka81","type":"paravet","name":"Dr. Meena Saini","phone":"918429199177","email":"meena.saini98@vetmail.in","qualification":"BVSc & AH (Paravet extension)","college":"Kerala Veterinary University","licenseBody":"State Animal Husbandry Dept","registrationNumber":"PV/KA/2010/45789","village":"Chandpur Nagar","city":"Ranchi","district":"Rajkot","state":"Karnataka","stateCode":"KA","lat":12.63696,"lng":79.32988,"yearsExperience":26,"languages":["hi","en"],"available":true},{"id":"paravet-ka82","type":"paravet","name":"Dr. Sarita Kumar","phone":"918566208469","email":"sarita.kumar31@vetmail.in","qualification":"BVSc & AH (Paravet extension)","college":"TANUVAS Chennai","licenseBody":"State Animal Husbandry Dept","registrationNumber":"PV/KA/2011/61821","village":"Shivpuri Kalan","city":"Jaipur","district":"Ranchi Rural","state":"Karnataka","stateCode":"KA","lat":15.02782,"lng":78.62188,"yearsExperience":25,"languages":["hi"],"available":true},{"id":"paravet-ka83","type":"paravet","name":"Dr. Manoj Rao","phone":"917478228750","email":"manoj.rao63@vetmail.in","qualification":"Diploma in Animal Husbandry (DAH)","college":"State AH Department Training","licenseBody":"State Animal Husbandry Dept","registrationNumber":"PV/KA/2015/91861","village":null,"city":"Indore","district":"Bhubaneswar Rural","state":"Karnataka","stateCode":"KA","lat":12.36899,"lng":76.91972,"yearsExperience":1,"languages":["hi","en"],"available":true},{"id":"paravet-ka84","type":"paravet","name":"Dr. Kavita Kaur","phone":"918998085515","email":"kavita.kaur18@vetmail.in","qualification":"NDDB AI Technician + Animal Health","college":"KVAFSU Bidar","licenseBody":"State Animal Husbandry Dept","registrationNumber":"PV/KA/2013/73569","village":null,"city":"Meerut","district":"Bhopal District","state":"Karnataka","stateCode":"KA","lat":10.91123,"lng":77.89104,"yearsExperience":25,"languages":["hi","en"],"available":true},{"id":"paravet-ka85","type":"paravet","name":"Dr. Dinesh Das","phone":"918368024011","email":"dinesh.das67@vetmail.in","qualification":"Diploma in Animal Husbandry (DAH)","college":"Bihar Veterinary College","licenseBody":"State Animal Husbandry Dept","registrationNumber":"PV/KA/2014/89008","village":null,"city":"Bhopal","district":"Guwahati District","state":"Karnataka","stateCode":"KA","lat":12.59955,"lng":79.23014,"yearsExperience":22,"languages":["hi"],"available":true},{"id":"vet-ka86","type":"vet","name":"Dr. Arun Sharma","phone":"918191676798","email":"arun.sharma62@vetmail.in","qualification":"BVSc & AH, MVSc","college":"MAFSU Nagpur","licenseBody":"Veterinary Council of India","registrationNumber":"VCI/KA/2018/35755","village":"Gangapur Nagar","city":"Hubballi","district":"Surat District","state":"Karnataka","stateCode":"KA","lat":11.12556,"lng":77.26263,"yearsExperience":1,"languages":["hi","en"],"available":true},{"id":"vet-ka87","type":"vet","name":"Dr. Priya Mehta","phone":"917832223724","email":"priya.mehta23@vetmail.in","qualification":"BVSc & AH, MVSc (Surgery)","college":"WBUAFS Kolkata","licenseBody":"Veterinary Council of India","registrationNumber":"VCI/KA/2021/81953","village":"Sitapur Nagar","city":"Raipur","district":"Agra Rural","state":"Karnataka","stateCode":"KA","lat":13.7065,"lng":79.27786,"yearsExperience":1,"languages":["hi"],"available":true},{"id":"paravet-ka88","type":"paravet","name":"Dr. Vinod Thakur","phone":"917635607206","email":"vinod.thakur27@vetmail.in","qualification":"BVSc & AH (Paravet extension)","college":"KVK Extension","licenseBody":"State Animal Husbandry Dept","registrationNumber":"PV/KA/2011/86383","village":null,"city":"Varanasi","district":"Jaipur Rural","state":"Karnataka","stateCode":"KA","lat":13.01689,"lng":77.6536,"yearsExperience":11,"languages":["hi","en"],"available":true},{"id":"paravet-ka89","type":"paravet","name":"Dr. Pooja Sharma","phone":"919788783378","email":"pooja.sharma80@vetmail.in","qualification":"NDDB AI Technician + Animal Health","college":"State AH Department Training","licenseBody":"State Animal Husbandry Dept","registrationNumber":"PV/KA/2022/23850","village":"Lakhanpur Kalan","city":"Surat","district":"Amritsar Rural","state":"Karnataka","stateCode":"KA","lat":12.76663,"lng":76.82159,"yearsExperience":10,"languages":["hi"],"available":true},{"id":"vet-ka90","type":"vet","name":"Arun Das Devi","phone":"916628460648","email":"arun.das71@vetmail.in","qualification":"BVSc & AH","college":"Bihar Veterinary College","licenseBody":"Veterinary Council of India","registrationNumber":"VCI/KA/2018/75928","village":"Devgarh","city":"Ranchi","district":"Meerut Rural","state":"Karnataka","stateCode":"KA","lat":11.27342,"lng":79.14183,"yearsExperience":5,"languages":["hi","en"],"available":true},{"id":"paravet-ka91","type":"paravet","name":"Dr. Rajesh Joshi","phone":"918535595581","email":"rajesh.joshi92@vetmail.in","qualification":"BVSc & AH (Paravet extension)","college":"KVAFSU Bidar","licenseBody":"State Animal Husbandry Dept","registrationNumber":"PV/KA/2013/70995","village":"Shivpuri Nagar","city":"Bhubaneswar","district":"Agra","state":"Karnataka","stateCode":"KA","lat":14.08865,"lng":78.13931,"yearsExperience":26,"languages":["hi","en"],"available":true},{"id":"paravet-ka92","type":"paravet","name":"Gopal Devi Devi","phone":"916942598147","email":"gopal.devi65@vetmail.in","qualification":"Diploma in Animal Husbandry (DAH)","college":"KVK Extension","licenseBody":"State Animal Husbandry Dept","registrationNumber":"PV/KA/2023/24613","village":"Ramnagar","city":"Jaipur","district":"Meerut","state":"Karnataka","stateCode":"KA","lat":14.98106,"lng":77.92827,"yearsExperience":9,"languages":["hi","en"],"available":true},{"id":"paravet-ka93","type":"paravet","name":"Dr. Pooja Singh","phone":"918055856983","email":"pooja.singh94@vetmail.in","qualification":"Certificate in Livestock Health Worker (LHW)","college":"KVAFSU Bidar","licenseBody":"State Animal Husbandry Dept","registrationNumber":"PV/KA/2020/14423","village":"Mohanpur","city":"Varanasi","district":"Agra District","state":"Karnataka","stateCode":"KA","lat":11.32355,"lng":78.16076,"yearsExperience":4,"languages":["hi"],"available":true},{"id":"vet-ka94","type":"vet","name":"Dr. Sunita Pandey","phone":"919564242459","email":"sunita.pandey17@vetmail.in","qualification":"BVSc & AH","college":"GBPUAT Pantnagar","licenseBody":"Veterinary Council of India","registrationNumber":"VCI/KA/2012/71636","village":"Bajpur Khurd","city":"Indore","district":"Madurai Rural","state":"Karnataka","stateCode":"KA","lat":14.67453,"lng":77.48899,"yearsExperience":18,"languages":["hi","en"],"available":true},{"id":"paravet-ka95","type":"paravet","name":"Dr. Sunil Saini","phone":"919756251934","email":"sunil.saini73@vetmail.in","qualification":"Certificate in Livestock Health Worker (LHW)","college":"WBUAFS Kolkata","licenseBody":"State Animal Husbandry Dept","registrationNumber":"PV/KA/2013/76957","village":null,"city":"Amritsar","district":"Bhopal District","state":"Karnataka","stateCode":"KA","lat":14.56431,"lng":76.71103,"yearsExperience":20,"languages":["hi","en"],"available":true},{"id":"paravet-ka96","type":"paravet","name":"Dr. Suresh Sharma","phone":"916664721162","email":"suresh.sharma50@vetmail.in","qualification":"Diploma in Animal Husbandry (DAH)","college":"GADVASU Ludhiana","licenseBody":"State Animal Husbandry Dept","registrationNumber":"PV/KA/2015/94997","village":"Basantpur Kalan","city":"Nagpur","district":"Coimbatore","state":"Karnataka","stateCode":"KA","lat":14.38944,"lng":78.25507,"yearsExperience":7,"languages":["hi","en"],"available":true},{"id":"paravet-ka97","type":"paravet","name":"Dr. Sunil Saini","phone":"919810205051","email":"sunil.saini58@vetmail.in","qualification":"NDDB AI Technician + Animal Health","college":"GBPUAT Pantnagar","licenseBody":"State Animal Husbandry Dept","registrationNumber":"PV/KA/2019/27423","village":"Kishanpur Nagar","city":"Patna","district":"Meerut District","state":"Karnataka","stateCode":"KA","lat":14.28868,"lng":77.20688,"yearsExperience":18,"languages":["hi"],"available":true},{"id":"paravet-ka98","type":"paravet","name":"Dr. Sunita Kumar","phone":"919917032028","email":"sunita.kumar70@vetmail.in","qualification":"Certificate in Livestock Health Worker (LHW)","college":"State AH Department Training","licenseBody":"State Animal Husbandry Dept","registrationNumber":"PV/KA/2010/18202","village":"Krishnapur Nagar","city":"Nagpur","district":"Jaipur Rural","state":"Karnataka","stateCode":"KA","lat":12.29083,"lng":79.73482,"yearsExperience":18,"languages":["hi"],"available":true},{"id":"paravet-ka99","type":"paravet","name":"Dr. Ravi Reddy","phone":"917129846188","email":"ravi.reddy71@vetmail.in","qualification":"BVSc & AH (Paravet extension)","college":"AAU Anand","licenseBody":"State Animal Husbandry Dept","registrationNumber":"PV/KA/2015/97433","village":"Kheri","city":"Agra","district":"Agra Rural","state":"Karnataka","stateCode":"KA","lat":14.53127,"lng":78.18353,"yearsExperience":24,"languages":["hi"],"available":false},{"id":"vet-ka100","type":"vet","name":"Dr. Rekha Das","phone":"918369978404","email":"rekha.das45@vetmail.in","qualification":"BVSc & AH, MVSc (Medicine)","college":"GBPUAT Pantnagar","licenseBody":"Veterinary Council of India","registrationNumber":"VCI/KA/2017/35700","village":"Gangapur Khurd","city":"Kanpur","district":"Pune Rural","state":"Karnataka","stateCode":"KA","lat":13.36517,"lng":77.59728,"yearsExperience":22,"languages":["hi","en"],"available":false},{"id":"paravet-ka101","type":"paravet","name":"Dr. Deepak Patel","phone":"916266773764","email":"deepak.patel61@vetmail.in","qualification":"BVSc & AH (Paravet extension)","college":"Bihar Veterinary College","licenseBody":"State Animal Husbandry Dept","registrationNumber":"PV/KA/2012/48062","village":null,"city":"Rajkot","district":"Ahmedabad Rural","state":"Karnataka","stateCode":"KA","lat":11.07464,"lng":76.51075,"yearsExperience":13,"languages":["hi"],"available":true},{"id":"vet-ka102","type":"vet","name":"Dr. Rekha Thakur","phone":"919970105364","email":"rekha.thakur98@vetmail.in","qualification":"BVSc & AH","college":"MAFSU Nagpur","licenseBody":"Veterinary Council of India","registrationNumber":"VCI/KA/2019/86923","village":"Kishanpur","city":"Patna","district":"Jaipur District","state":"Karnataka","stateCode":"KA","lat":13.93844,"lng":76.25045,"yearsExperience":16,"languages":["hi","en"],"available":true},{"id":"paravet-ka103","type":"paravet","name":"Dr. Amit Patel","phone":"919594641355","email":"amit.patel38@vetmail.in","qualification":"Certificate in Livestock Health Worker (LHW)","college":"TANUVAS Chennai","licenseBody":"State Animal Husbandry Dept","registrationNumber":"PV/KA/2011/13123","village":null,"city":"Lucknow","district":"Meerut","state":"Karnataka","stateCode":"KA","lat":13.19043,"lng":78.42511,"yearsExperience":7,"languages":["hi"],"available":false},{"id":"paravet-ka104","type":"paravet","name":"Dr. Kavita Sharma","phone":"916041259739","email":"kavita.sharma31@vetmail.in","qualification":"BVSc & AH (Paravet extension)","college":"Assam Agricultural University","licenseBody":"State Animal Husbandry Dept","registrationNumber":"PV/KA/2014/57461","village":"Rampur Kalan","city":"Indore","district":"Kanpur","state":"Karnataka","stateCode":"KA","lat":14.23148,"lng":76.22199,"yearsExperience":18,"languages":["hi"],"available":true},{"id":"paravet-ka105","type":"paravet","name":"Dr. Lakshmi Mishra","phone":"918931603377","email":"lakshmi.mishra55@vetmail.in","qualification":"Certificate in Livestock Health Worker (LHW)","college":"Assam Agricultural University","licenseBody":"State Animal Husbandry Dept","registrationNumber":"PV/KA/2014/53600","village":"Sonpur Nagar","city":"Pune","district":"Rajkot Rural","state":"Karnataka","stateCode":"KA","lat":12.31552,"lng":79.60341,"yearsExperience":10,"languages":["hi"],"available":true},{"id":"paravet-ka106","type":"paravet","name":"Dr. Gopal Thakur","phone":"918812427396","email":"gopal.thakur20@vetmail.in","qualification":"NDDB AI Technician + Animal Health","college":"DUVASU Mathura","licenseBody":"State Animal Husbandry Dept","registrationNumber":"PV/KA/2017/62702","village":"Basantpur Kalan","city":"Nagpur","district":"Ranchi","state":"Karnataka","stateCode":"KA","lat":12.8457,"lng":78.64432,"yearsExperience":23,"languages":["hi"],"available":true},{"id":"vet-ka107","type":"vet","name":"Dr. Ravi Verma","phone":"918436820979","email":"ravi.verma73@vetmail.in","qualification":"BVSc & AH, MVSc (Medicine)","college":"WBUAFS Kolkata","licenseBody":"Veterinary Council of India","registrationNumber":"VCI/KA/2010/31575","village":"Chandpur Nagar","city":"Coimbatore","district":"Kanpur Rural","state":"Karnataka","stateCode":"KA","lat":12.91572,"lng":76.97436,"yearsExperience":27,"languages":["hi","en"],"available":true},{"id":"vet-ka108","type":"vet","name":"Dr. Amit Rao","phone":"919128154917","email":"amit.rao36@vetmail.in","qualification":"BVSc & AH, MVSc","college":"Assam Agricultural University","licenseBody":"Veterinary Council of India","registrationNumber":"VCI/KA/2022/68735","village":null,"city":"Ahmedabad","district":"Hubballi Rural","state":"Karnataka","stateCode":"KA","lat":11.79449,"lng":75.81833,"yearsExperience":20,"languages":["hi","en"],"available":true},{"id":"paravet-ka109","type":"paravet","name":"Dr. Amit Rao","phone":"917934521153","email":"amit.rao7@vetmail.in","qualification":"Diploma in Animal Husbandry (DAH)","college":"KVAFSU Bidar","licenseBody":"State Animal Husbandry Dept","registrationNumber":"PV/KA/2023/50181","village":"Krishnapur Kalan","city":"Ahmedabad","district":"Meerut","state":"Karnataka","stateCode":"KA","lat":13.07092,"lng":78.39547,"yearsExperience":3,"languages":["hi"],"available":true},{"id":"paravet-ka110","type":"paravet","name":"Dr. Neha Reddy","phone":"919948471768","email":"neha.reddy90@vetmail.in","qualification":"BVSc & AH (Paravet extension)","college":"Rajasthan University of Veterinary Sciences","licenseBody":"State Animal Husbandry Dept","registrationNumber":"PV/KA/2012/87880","village":"Bharatpur Kalan","city":"Agra","district":"Patna","state":"Karnataka","stateCode":"KA","lat":12.05818,"lng":76.93018,"yearsExperience":11,"languages":["hi"],"available":true},{"id":"paravet-ka111","type":"paravet","name":"Dr. Anita Sharma","phone":"917125782789","email":"anita.sharma81@vetmail.in","qualification":"Certificate in Livestock Health Worker (LHW)","college":"WBUAFS Kolkata","licenseBody":"State Animal Husbandry Dept","registrationNumber":"PV/KA/2017/24836","village":null,"city":"Bhopal","district":"Ranchi District","state":"Karnataka","stateCode":"KA","lat":14.18023,"lng":77.09266,"yearsExperience":22,"languages":["hi"],"available":true},{"id":"paravet-ka112","type":"paravet","name":"Dr. Pradeep Reddy","phone":"918543283536","email":"pradeep.reddy79@vetmail.in","qualification":"BVSc & AH (Paravet extension)","college":"KVAFSU Bidar","licenseBody":"State Animal Husbandry Dept","registrationNumber":"PV/KA/2022/56971","village":null,"city":"Ranchi","district":"Mysuru","state":"Karnataka","stateCode":"KA","lat":11.08318,"lng":75.99911,"yearsExperience":20,"languages":["hi","en"],"available":true},{"id":"paravet-ka113","type":"paravet","name":"Dr. Rekha Rao","phone":"918988410434","email":"rekha.rao80@vetmail.in","qualification":"Certificate in Livestock Health Worker (LHW)","college":"GADVASU Ludhiana","licenseBody":"State Animal Husbandry Dept","registrationNumber":"PV/KA/2012/75256","village":"Devgarh Kalan","city":"Raipur","district":"Coimbatore","state":"Karnataka","stateCode":"KA","lat":14.50879,"lng":77.38617,"yearsExperience":9,"languages":["hi","en"],"available":true},{"id":"paravet-ka114","type":"paravet","name":"Dr. Suman Patel","phone":"916735972083","email":"suman.patel1@vetmail.in","qualification":"Diploma in Animal Husbandry (DAH)","college":"KVK Extension","licenseBody":"State Animal Husbandry Dept","registrationNumber":"PV/KA/2017/45732","village":null,"city":"Mysuru","district":"Kanpur District","state":"Karnataka","stateCode":"KA","lat":11.73481,"lng":77.07302,"yearsExperience":9,"languages":["hi"],"available":true},{"id":"paravet-ka115","type":"paravet","name":"Dr. Gopal Gupta","phone":"918919582460","email":"gopal.gupta65@vetmail.in","qualification":"Diploma in Animal Husbandry (DAH)","college":"TANUVAS Chennai","licenseBody":"State Animal Husbandry Dept","registrationNumber":"PV/KA/2018/44482","village":"Kheri","city":"Patna","district":"Madurai Rural","state":"Karnataka","stateCode":"KA","lat":10.72682,"lng":78.07407,"yearsExperience":6,"languages":["hi","en"],"available":false},{"id":"vet-ka116","type":"vet","name":"Dr. Suresh Singh","phone":"917842381422","email":"suresh.singh68@vetmail.in","qualification":"BVSc & AH","college":"DUVASU Mathura","licenseBody":"Veterinary Council of India","registrationNumber":"VCI/KA/2015/65585","village":"Gangapur Kalan","city":"Meerut","district":"Amritsar","state":"Karnataka","stateCode":"KA","lat":14.93567,"lng":78.17222,"yearsExperience":10,"languages":["hi","en"],"available":true},{"id":"paravet-ka117","type":"paravet","name":"Dr. Suresh Nair","phone":"919201505156","email":"suresh.nair79@vetmail.in","qualification":"Diploma in Animal Husbandry (DAH)","college":"Bihar Veterinary College","licenseBody":"State Animal Husbandry Dept","registrationNumber":"PV/KA/2019/72929","village":"Lakhanpur Khurd","city":"Hubballi","district":"Rajkot Rural","state":"Karnataka","stateCode":"KA","lat":12.54179,"lng":76.44833,"yearsExperience":26,"languages":["hi"],"available":true},{"id":"paravet-ka118","type":"paravet","name":"Dr. Priya Das","phone":"919109877487","email":"priya.das65@vetmail.in","qualification":"Diploma in Animal Husbandry (DAH)","college":"Kerala Veterinary University","licenseBody":"State Animal Husbandry Dept","registrationNumber":"PV/KA/2017/45353","village":"Krishnapur Kalan","city":"Indore","district":"Ranchi","state":"Karnataka","stateCode":"KA","lat":11.5413,"lng":76.22886,"yearsExperience":27,"languages":["hi","en"],"available":true},{"id":"vet-ka119","type":"vet","name":"Dr. Ashok Yadav","phone":"916565736364","email":"ashok.yadav40@vetmail.in","qualification":"BVSc & AH, MVSc (Medicine)","college":"OUAT Bhubaneswar","licenseBody":"Veterinary Council of India","registrationNumber":"VCI/KA/2021/89617","village":"Shivpuri Nagar","city":"Surat","district":"Hubballi District","state":"Karnataka","stateCode":"KA","lat":14.84124,"lng":75.65654,"yearsExperience":21,"languages":["hi","en"],"available":true},{"id":"vet-ka120","type":"vet","name":"Dr. Rajesh Verma","phone":"917995698267","email":"rajesh.verma47@vetmail.in","qualification":"BVSc & AH, MVSc (Medicine)","college":"Assam Agricultural University","licenseBody":"Veterinary Council of India","registrationNumber":"VCI/KA/2012/90312","village":"Krishnapur Nagar","city":"Ahmedabad","district":"Madurai","state":"Karnataka","stateCode":"KA","lat":10.854,"lng":78.80571,"yearsExperience":19,"languages":["hi","en"],"available":true},{"id":"paravet-ka121","type":"paravet","name":"Dr. Pooja Kaur","phone":"917312927366","email":"pooja.kaur91@vetmail.in","qualification":"BVSc & AH (Paravet extension)","college":"DUVASU Mathura","licenseBody":"State Animal Husbandry Dept","registrationNumber":"PV/KA/2015/75268","village":"Devgarh","city":"Guwahati","district":"Meerut","state":"Karnataka","stateCode":"KA","lat":13.53101,"lng":75.58029,"yearsExperience":24,"languages":["hi","en"],"available":false},{"id":"vet-ka122","type":"vet","name":"Dr. Pooja Rao","phone":"917233466581","email":"pooja.rao67@vetmail.in","qualification":"BVSc & AH","college":"GADVASU Ludhiana","licenseBody":"Veterinary Council of India","registrationNumber":"VCI/KA/2012/73921","village":null,"city":"Coimbatore","district":"Indore","state":"Karnataka","stateCode":"KA","lat":12.44845,"lng":79.7967,"yearsExperience":16,"languages":["hi","en"],"available":true},{"id":"vet-ka123","type":"vet","name":"Dr. Deepak Das","phone":"919766062795","email":"deepak.das78@vetmail.in","qualification":"BVSc & AH, MVSc (Medicine)","college":"MAFSU Nagpur","licenseBody":"Veterinary Council of India","registrationNumber":"VCI/KA/2021/73593","village":"Bharatpur Khurd","city":"Bhubaneswar","district":"Rajkot","state":"Karnataka","stateCode":"KA","lat":12.11688,"lng":76.72718,"yearsExperience":17,"languages":["hi","en"],"available":true},{"id":"paravet-ka124","type":"paravet","name":"Dr. Lakshmi Nair","phone":"916491845935","email":"lakshmi.nair10@vetmail.in","qualification":"Diploma in Animal Husbandry (DAH)","college":"State AH Department Training","licenseBody":"State Animal Husbandry Dept","registrationNumber":"PV/KA/2022/23297","village":"Rampur Khurd","city":"Ludhiana","district":"Indore Rural","state":"Karnataka","stateCode":"KA","lat":13.05826,"lng":79.2477,"yearsExperience":21,"languages":["hi"],"available":true},{"id":"vet-ka125","type":"vet","name":"Dr. Rajesh Joshi","phone":"918007534530","email":"rajesh.joshi15@vetmail.in","qualification":"BVSc & AH, MVSc","college":"TANUVAS Chennai","licenseBody":"Veterinary Council of India","registrationNumber":"VCI/KA/2016/43429","village":"Bajpur Nagar","city":"Indore","district":"Bhubaneswar District","state":"Karnataka","stateCode":"KA","lat":13.24665,"lng":77.0859,"yearsExperience":5,"languages":["hi","en"],"available":true},{"id":"paravet-ka126","type":"paravet","name":"Arun Patel Devi","phone":"919676399993","email":"arun.patel75@vetmail.in","qualification":"Diploma in Animal Husbandry (DAH)","college":"GBPUAT Pantnagar","licenseBody":"State Animal Husbandry Dept","registrationNumber":"PV/KA/2022/36060","village":"Nandgaon Nagar","city":"Patna","district":"Varanasi Rural","state":"Karnataka","stateCode":"KA","lat":14.05567,"lng":76.90259,"yearsExperience":15,"languages":["hi"],"available":true},{"id":"paravet-ka127","type":"paravet","name":"Dr. Priya Reddy","phone":"917590072343","email":"priya.reddy68@vetmail.in","qualification":"Diploma in Animal Husbandry (DAH)","college":"AAU Anand","licenseBody":"State Animal Husbandry Dept","registrationNumber":"PV/KA/2012/54055","village":"Patti","city":"Lucknow","district":"Pune","state":"Karnataka","stateCode":"KA","lat":15.1231,"lng":79.33913,"yearsExperience":10,"languages":["hi","en"],"available":true},{"id":"vet-ka128","type":"vet","name":"Amit Mishra Devi","phone":"917985727125","email":"amit.mishra39@vetmail.in","qualification":"BVSc & AH, MVSc (Medicine)","college":"LUVAS Hisar","licenseBody":"Veterinary Council of India","registrationNumber":"VCI/KA/2013/11056","village":"Mohanpur Khurd","city":"Surat","district":"Bhubaneswar District","state":"Karnataka","stateCode":"KA","lat":14.01765,"lng":78.3931,"yearsExperience":4,"languages":["hi","en"],"available":true},{"id":"paravet-ka129","type":"paravet","name":"Dr. Suresh Rao","phone":"916107603082","email":"suresh.rao79@vetmail.in","qualification":"Certificate in Livestock Health Worker (LHW)","college":"WBUAFS Kolkata","licenseBody":"State Animal Husbandry Dept","registrationNumber":"PV/KA/2018/33633","village":"Govindpur Kalan","city":"Rajkot","district":"Ranchi Rural","state":"Karnataka","stateCode":"KA","lat":14.02548,"lng":77.28056,"yearsExperience":19,"languages":["hi","en"],"available":true},{"id":"paravet-ka130","type":"paravet","name":"Dr. Sunita Singh","phone":"919780325561","email":"sunita.singh33@vetmail.in","qualification":"BVSc & AH (Paravet extension)","college":"Bihar Veterinary College","licenseBody":"State Animal Husbandry Dept","registrationNumber":"PV/KA/2023/52098","village":null,"city":"Varanasi","district":"Bhubaneswar","state":"Karnataka","stateCode":"KA","lat":11.30838,"lng":79.56453,"yearsExperience":7,"languages":["hi","en"],"available":true},{"id":"paravet-ka131","type":"paravet","name":"Dr. Amit Sharma","phone":"916595573434","email":"amit.sharma22@vetmail.in","qualification":"Diploma in Animal Husbandry (DAH)","college":"KVK Extension","licenseBody":"State Animal Husbandry Dept","registrationNumber":"PV/KA/2023/80602","village":"Devgarh Nagar","city":"Bhopal","district":"Lucknow","state":"Karnataka","stateCode":"KA","lat":10.97722,"lng":78.05021,"yearsExperience":17,"languages":["hi"],"available":true},{"id":"paravet-ka132","type":"paravet","name":"Dr. Rekha Reddy","phone":"918551771838","email":"rekha.reddy10@vetmail.in","qualification":"Certificate in Livestock Health Worker (LHW)","college":"WBUAFS Kolkata","licenseBody":"State Animal Husbandry Dept","registrationNumber":"PV/KA/2010/96868","village":"Shivpuri Nagar","city":"Agra","district":"Surat District","state":"Karnataka","stateCode":"KA","lat":10.98741,"lng":78.2393,"yearsExperience":7,"languages":["hi","en"],"available":true},{"id":"paravet-ka133","type":"paravet","name":"Dr. Dinesh Singh","phone":"918474881903","email":"dinesh.singh6@vetmail.in","qualification":"NDDB AI Technician + Animal Health","college":"WBUAFS Kolkata","licenseBody":"State Animal Husbandry Dept","registrationNumber":"PV/KA/2012/77240","village":null,"city":"Lucknow","district":"Hubballi District","state":"Karnataka","stateCode":"KA","lat":11.29342,"lng":75.51653,"yearsExperience":4,"languages":["hi","en"],"available":true},{"id":"paravet-ka134","type":"paravet","name":"Dr. Arun Thakur","phone":"917017152631","email":"arun.thakur9@vetmail.in","qualification":"Certificate in Livestock Health Worker (LHW)","college":"KVAFSU Bidar","licenseBody":"State Animal Husbandry Dept","registrationNumber":"PV/KA/2019/40049","village":"Kishanpur Khurd","city":"Meerut","district":"Coimbatore Rural","state":"Karnataka","stateCode":"KA","lat":11.15768,"lng":79.43776,"yearsExperience":26,"languages":["hi"],"available":true},{"id":"paravet-ka135","type":"paravet","name":"Dr. Anita Mehta","phone":"916791354981","email":"anita.mehta60@vetmail.in","qualification":"BVSc & AH (Paravet extension)","college":"OUAT Bhubaneswar","licenseBody":"State Animal Husbandry Dept","registrationNumber":"PV/KA/2015/43417","village":"Nandgaon","city":"Guwahati","district":"Indore","state":"Karnataka","stateCode":"KA","lat":12.13313,"lng":79.34726,"yearsExperience":13,"languages":["hi","en"],"available":false},{"id":"vet-ka136","type":"vet","name":"Dr. Deepak Yadav","phone":"919549184883","email":"deepak.yadav96@vetmail.in","qualification":"BVSc & AH, MVSc (Surgery)","college":"GADVASU Ludhiana","licenseBody":"Veterinary Council of India","registrationNumber":"VCI/KA/2011/88641","village":"Rampur Khurd","city":"Meerut","district":"Bhubaneswar Rural","state":"Karnataka","stateCode":"KA","lat":11.16268,"lng":78.64564,"yearsExperience":3,"languages":["hi"],"available":true},{"id":"vet-ka137","type":"vet","name":"Vinod Gupta Devi","phone":"918050187995","email":"vinod.gupta94@vetmail.in","qualification":"BVSc & AH, MVSc (Surgery)","college":"TANUVAS Chennai","licenseBody":"Veterinary Council of India","registrationNumber":"VCI/KA/2017/77769","village":"Krishnapur Khurd","city":"Pune","district":"Lucknow Rural","state":"Karnataka","stateCode":"KA","lat":13.21717,"lng":76.66443,"yearsExperience":1,"languages":["hi","en"],"available":true},{"id":"paravet-ka138","type":"paravet","name":"Dr. Neha Nair","phone":"919137924624","email":"neha.nair94@vetmail.in","qualification":"NDDB AI Technician + Animal Health","college":"KVK Extension","licenseBody":"State Animal Husbandry Dept","registrationNumber":"PV/KA/2023/98118","village":null,"city":"Hubballi","district":"Rajkot Rural","state":"Karnataka","stateCode":"KA","lat":10.86338,"lng":76.43232,"yearsExperience":8,"languages":["hi","en"],"available":true},{"id":"paravet-ka139","type":"paravet","name":"Dr. Mohan Mehta","phone":"919250917055","email":"mohan.mehta32@vetmail.in","qualification":"NDDB AI Technician + Animal Health","college":"DUVASU Mathura","licenseBody":"State Animal Husbandry Dept","registrationNumber":"PV/KA/2010/33243","village":"Sitapur Khurd","city":"Bhopal","district":"Madurai","state":"Karnataka","stateCode":"KA","lat":12.44737,"lng":76.95945,"yearsExperience":25,"languages":["hi","en"],"available":true},{"id":"vet-ka140","type":"vet","name":"Dr. Anita Kumar","phone":"918249004461","email":"anita.kumar96@vetmail.in","qualification":"BVSc & AH, MVSc (Surgery)","college":"Assam Agricultural University","licenseBody":"Veterinary Council of India","registrationNumber":"VCI/KA/2015/64366","village":null,"city":"Nagpur","district":"Meerut Rural","state":"Karnataka","stateCode":"KA","lat":12.86877,"lng":78.09891,"yearsExperience":6,"languages":["hi","en"],"available":true},{"id":"paravet-ka141","type":"paravet","name":"Dr. Sanjay Sharma","phone":"917951046864","email":"sanjay.sharma37@vetmail.in","qualification":"BVSc & AH (Paravet extension)","college":"Assam Agricultural University","licenseBody":"State Animal Husbandry Dept","registrationNumber":"PV/KA/2020/83273","village":null,"city":"Pune","district":"Lucknow Rural","state":"Karnataka","stateCode":"KA","lat":13.74185,"lng":78.53963,"yearsExperience":21,"languages":["hi","en"],"available":true},{"id":"vet-ka142","type":"vet","name":"Dr. Dinesh Saini","phone":"917625279379","email":"dinesh.saini44@vetmail.in","qualification":"BVSc & AH, MVSc (Surgery)","college":"Rajasthan University of Veterinary Sciences","licenseBody":"Veterinary Council of India","registrationNumber":"VCI/KA/2016/40770","village":"Mohanpur Nagar","city":"Rajkot","district":"Rajkot District","state":"Karnataka","stateCode":"KA","lat":14.32803,"lng":76.16146,"yearsExperience":17,"languages":["hi","en"],"available":true},{"id":"paravet-ka143","type":"paravet","name":"Dr. Amit Gupta","phone":"917831071055","email":"amit.gupta14@vetmail.in","qualification":"Diploma in Animal Husbandry (DAH)","college":"GADVASU Ludhiana","licenseBody":"State Animal Husbandry Dept","registrationNumber":"PV/KA/2022/23069","village":"Basantpur Khurd","city":"Ranchi","district":"Coimbatore Rural","state":"Karnataka","stateCode":"KA","lat":13.40444,"lng":77.01138,"yearsExperience":18,"languages":["hi","en"],"available":true},{"id":"paravet-ka144","type":"paravet","name":"Dr. Neha Patel","phone":"917918792558","email":"neha.patel17@vetmail.in","qualification":"NDDB AI Technician + Animal Health","college":"IVRI Bareilly","licenseBody":"State Animal Husbandry Dept","registrationNumber":"PV/KA/2019/61839","village":null,"city":"Nagpur","district":"Bhubaneswar Rural","state":"Karnataka","stateCode":"KA","lat":11.03384,"lng":79.3577,"yearsExperience":5,"languages":["hi","en"],"available":true},{"id":"paravet-ka145","type":"paravet","name":"Dr. Sunita Kaur","phone":"916105393445","email":"sunita.kaur22@vetmail.in","qualification":"NDDB AI Technician + Animal Health","college":"TANUVAS Chennai","licenseBody":"State Animal Husbandry Dept","registrationNumber":"PV/KA/2023/95227","village":"Gangapur Khurd","city":"Ludhiana","district":"Hubballi District","state":"Karnataka","stateCode":"KA","lat":14.16311,"lng":78.01197,"yearsExperience":8,"languages":["hi","en"],"available":false},{"id":"vet-ka146","type":"vet","name":"Dr. Lakshmi Thakur","phone":"918353565638","email":"lakshmi.thakur71@vetmail.in","qualification":"BVSc & AH, MVSc (Medicine)","college":"OUAT Bhubaneswar","licenseBody":"Veterinary Council of India","registrationNumber":"VCI/KA/2020/48954","village":null,"city":"Jaipur","district":"Pune","state":"Karnataka","stateCode":"KA","lat":11.47226,"lng":79.22291,"yearsExperience":26,"languages":["hi","en"],"available":true},{"id":"vet-ka147","type":"vet","name":"Dr. Amit Mishra","phone":"919507980132","email":"amit.mishra25@vetmail.in","qualification":"BVSc & AH","college":"DUVASU Mathura","licenseBody":"Veterinary Council of India","registrationNumber":"VCI/KA/2011/26654","village":null,"city":"Agra","district":"Jaipur Rural","state":"Karnataka","stateCode":"KA","lat":14.52183,"lng":77.41877,"yearsExperience":1,"languages":["hi"],"available":true},{"id":"vet-ka148","type":"vet","name":"Vijay Mishra Devi","phone":"918718557663","email":"vijay.mishra3@vetmail.in","qualification":"BVSc & AH, MVSc","college":"Kerala Veterinary University","licenseBody":"Veterinary Council of India","registrationNumber":"VCI/KA/2020/48743","village":"Khurd Nagar","city":"Ludhiana","district":"Indore District","state":"Karnataka","stateCode":"KA","lat":15.07151,"lng":77.04178,"yearsExperience":26,"languages":["hi"],"available":true},{"id":"vet-ka149","type":"vet","name":"Dr. Dinesh Kaur","phone":"919470837210","email":"dinesh.kaur30@vetmail.in","qualification":"BVSc & AH","college":"DUVASU Mathura","licenseBody":"Veterinary Council of India","registrationNumber":"VCI/KA/2021/82657","village":"Govindpur","city":"Mysuru","district":"Pune District","state":"Karnataka","stateCode":"KA","lat":15.12212,"lng":75.39235,"yearsExperience":1,"languages":["hi"],"available":true},{"id":"paravet-ka150","type":"paravet","name":"Dr. Suresh Reddy","phone":"918029898523","email":"suresh.reddy27@vetmail.in","qualification":"BVSc & AH (Paravet extension)","college":"DUVASU Mathura","licenseBody":"State Animal Husbandry Dept","registrationNumber":"PV/KA/2018/97109","village":"Bajpur Khurd","city":"Surat","district":"Bhubaneswar Rural","state":"Karnataka","stateCode":"KA","lat":13.0586,"lng":76.95021,"yearsExperience":28,"languages":["hi"],"available":true},{"id":"vet-ka151","type":"vet","name":"Dr. Suresh Verma","phone":"917460589880","email":"suresh.verma25@vetmail.in","qualification":"BVSc & AH","college":"OUAT Bhubaneswar","licenseBody":"Veterinary Council of India","registrationNumber":"VCI/KA/2015/59241","village":"Bharatpur Kalan","city":"Coimbatore","district":"Agra","state":"Karnataka","stateCode":"KA","lat":14.35711,"lng":77.17614,"yearsExperience":11,"languages":["hi"],"available":true},{"id":"paravet-ka152","type":"paravet","name":"Dr. Kavita Rao","phone":"918872484149","email":"kavita.rao41@vetmail.in","qualification":"Certificate in Livestock Health Worker (LHW)","college":"AAU Anand","licenseBody":"State Animal Husbandry Dept","registrationNumber":"PV/KA/2021/58734","village":"Nagar Kalan","city":"Surat","district":"Mysuru","state":"Karnataka","stateCode":"KA","lat":11.29305,"lng":78.55706,"yearsExperience":23,"languages":["hi","en"],"available":false},{"id":"paravet-ka153","type":"paravet","name":"Dr. Suresh Mishra","phone":"918931319163","email":"suresh.mishra16@vetmail.in","qualification":"BVSc & AH (Paravet extension)","college":"IVRI Bareilly","licenseBody":"State Animal Husbandry Dept","registrationNumber":"PV/KA/2010/41905","village":null,"city":"Pune","district":"Patna District","state":"Karnataka","stateCode":"KA","lat":15.01505,"lng":79.31914,"yearsExperience":13,"languages":["hi","en"],"available":true},{"id":"vet-ka154","type":"vet","name":"Dr. Dinesh Pandey","phone":"918115201103","email":"dinesh.pandey46@vetmail.in","qualification":"BVSc & AH, MVSc (Surgery)","college":"Kerala Veterinary University","licenseBody":"Veterinary Council of India","registrationNumber":"VCI/KA/2016/77637","village":"Bajpur Kalan","city":"Bhubaneswar","district":"Varanasi District","state":"Karnataka","stateCode":"KA","lat":13.13782,"lng":77.2926,"yearsExperience":19,"languages":["hi","en"],"available":true},{"id":"paravet-ka155","type":"paravet","name":"Dr. Pooja Mishra","phone":"917134804809","email":"pooja.mishra43@vetmail.in","qualification":"Certificate in Livestock Health Worker (LHW)","college":"Rajasthan University of Veterinary Sciences","licenseBody":"State Animal Husbandry Dept","registrationNumber":"PV/KA/2011/82577","village":"Govindpur Khurd","city":"Nagpur","district":"Meerut Rural","state":"Karnataka","stateCode":"KA","lat":15.11405,"lng":77.9825,"yearsExperience":27,"languages":["hi"],"available":true},{"id":"paravet-ka156","type":"paravet","name":"Dr. Mohan Reddy","phone":"916215379038","email":"mohan.reddy49@vetmail.in","qualification":"BVSc & AH (Paravet extension)","college":"KVK Extension","licenseBody":"State Animal Husbandry Dept","registrationNumber":"PV/KA/2022/18589","village":"Devgarh Kalan","city":"Agra","district":"Ludhiana","state":"Karnataka","stateCode":"KA","lat":11.69389,"lng":79.66943,"yearsExperience":26,"languages":["hi","en"],"available":true},{"id":"vet-ka157","type":"vet","name":"Dr. Radha Mishra","phone":"916473241680","email":"radha.mishra25@vetmail.in","qualification":"BVSc & AH, MVSc (Surgery)","college":"LUVAS Hisar","licenseBody":"Veterinary Council of India","registrationNumber":"VCI/KA/2015/93732","village":"Kishanpur","city":"Raipur","district":"Coimbatore District","state":"Karnataka","stateCode":"KA","lat":13.40738,"lng":77.8676,"yearsExperience":22,"languages":["hi","en"],"available":true},{"id":"paravet-ka158","type":"paravet","name":"Dr. Dinesh Choudhary","phone":"918454284741","email":"dinesh.choudhary86@vetmail.in","qualification":"NDDB AI Technician + Animal Health","college":"LUVAS Hisar","licenseBody":"State Animal Husbandry Dept","registrationNumber":"PV/KA/2015/56296","village":"Nandgaon Kalan","city":"Ahmedabad","district":"Bhubaneswar","state":"Karnataka","stateCode":"KA","lat":15.03782,"lng":79.72677,"yearsExperience":18,"languages":["hi","en"],"available":true},{"id":"vet-ka159","type":"vet","name":"Dr. Dinesh Kaur","phone":"917039325102","email":"dinesh.kaur53@vetmail.in","qualification":"BVSc & AH, MVSc (Surgery)","college":"OUAT Bhubaneswar","licenseBody":"Veterinary Council of India","registrationNumber":"VCI/KA/2020/43362","village":"Gangapur Khurd","city":"Ahmedabad","district":"Mysuru Rural","state":"Karnataka","stateCode":"KA","lat":14.38278,"lng":76.51775,"yearsExperience":28,"languages":["hi"],"available":true},{"id":"paravet-ka160","type":"paravet","name":"Dr. Radha Thakur","phone":"918561675317","email":"radha.thakur24@vetmail.in","qualification":"Certificate in Livestock Health Worker (LHW)","college":"AAU Anand","licenseBody":"State Animal Husbandry Dept","registrationNumber":"PV/KA/2014/11489","village":"Kishanpur","city":"Varanasi","district":"Nagpur Rural","state":"Karnataka","stateCode":"KA","lat":11.62672,"lng":77.03186,"yearsExperience":3,"languages":["hi","en"],"available":true},{"id":"vet-ka161","type":"vet","name":"Dr. Lakshmi Sharma","phone":"919250466349","email":"lakshmi.sharma90@vetmail.in","qualification":"BVSc & AH","college":"DUVASU Mathura","licenseBody":"Veterinary Council of India","registrationNumber":"VCI/KA/2011/21475","village":"Govindpur Nagar","city":"Indore","district":"Ranchi District","state":"Karnataka","stateCode":"KA","lat":13.20776,"lng":75.83911,"yearsExperience":19,"languages":["hi","en"],"available":true},{"id":"paravet-ka162","type":"paravet","name":"Dr. Deepak Sharma","phone":"916631654016","email":"deepak.sharma59@vetmail.in","qualification":"Diploma in Animal Husbandry (DAH)","college":"KVAFSU Bidar","licenseBody":"State Animal Husbandry Dept","registrationNumber":"PV/KA/2010/27240","village":"Devgarh Nagar","city":"Varanasi","district":"Agra","state":"Karnataka","stateCode":"KA","lat":13.15286,"lng":75.63965,"yearsExperience":13,"languages":["hi","en"],"available":true},{"id":"vet-ka163","type":"vet","name":"Dr. Suman Yadav","phone":"918002196597","email":"suman.yadav84@vetmail.in","qualification":"BVSc & AH, MVSc (Medicine)","college":"Kerala Veterinary University","licenseBody":"Veterinary Council of India","registrationNumber":"VCI/KA/2010/81585","village":"Krishnapur Nagar","city":"Madurai","district":"Guwahati","state":"Karnataka","stateCode":"KA","lat":12.31706,"lng":78.21809,"yearsExperience":6,"languages":["hi","en"],"available":true},{"id":"paravet-ka164","type":"paravet","name":"Dr. Pradeep Rao","phone":"919160819572","email":"pradeep.rao31@vetmail.in","qualification":"Certificate in Livestock Health Worker (LHW)","college":"Kerala Veterinary University","licenseBody":"State Animal Husbandry Dept","registrationNumber":"PV/KA/2018/80624","village":"Ramnagar Nagar","city":"Amritsar","district":"Varanasi","state":"Karnataka","stateCode":"KA","lat":12.95537,"lng":76.01665,"yearsExperience":27,"languages":["hi","en"],"available":true},{"id":"paravet-ka165","type":"paravet","name":"Dr. Rekha Kumar","phone":"916101039461","email":"rekha.kumar73@vetmail.in","qualification":"BVSc & AH (Paravet extension)","college":"GBPUAT Pantnagar","licenseBody":"State Animal Husbandry Dept","registrationNumber":"PV/KA/2015/71880","village":null,"city":"Mysuru","district":"Amritsar Rural","state":"Karnataka","stateCode":"KA","lat":13.00104,"lng":76.43529,"yearsExperience":28,"languages":["hi"],"available":true},{"id":"paravet-ka166","type":"paravet","name":"Dr. Dinesh Singh","phone":"917734899421","email":"dinesh.singh70@vetmail.in","qualification":"BVSc & AH (Paravet extension)","college":"TANUVAS Chennai","licenseBody":"State Animal Husbandry Dept","registrationNumber":"PV/KA/2016/23990","village":"Basantpur Khurd","city":"Ahmedabad","district":"Surat Rural","state":"Karnataka","stateCode":"KA","lat":13.93427,"lng":78.2239,"yearsExperience":21,"languages":["hi","en"],"available":true},{"id":"paravet-ka167","type":"paravet","name":"Dr. Meena Kaur","phone":"916182541584","email":"meena.kaur19@vetmail.in","qualification":"NDDB AI Technician + Animal Health","college":"WBUAFS Kolkata","licenseBody":"State Animal Husbandry Dept","registrationNumber":"PV/KA/2011/34991","village":"Patti","city":"Kanpur","district":"Coimbatore District","state":"Karnataka","stateCode":"KA","lat":13.13997,"lng":78.82179,"yearsExperience":13,"languages":["hi","en"],"available":true},{"id":"paravet-ka168","type":"paravet","name":"Dr. Pooja Mehta","phone":"916466134828","email":"pooja.mehta77@vetmail.in","qualification":"BVSc & AH (Paravet extension)","college":"KVK Extension","licenseBody":"State Animal Husbandry Dept","registrationNumber":"PV/KA/2023/95875","village":"Govindpur Nagar","city":"Nagpur","district":"Guwahati District","state":"Karnataka","stateCode":"KA","lat":11.24658,"lng":77.79342,"yearsExperience":4,"languages":["hi","en"],"available":true},{"id":"paravet-ka169","type":"paravet","name":"Dr. Ashok Mishra","phone":"917470109220","email":"ashok.mishra90@vetmail.in","qualification":"NDDB AI Technician + Animal Health","college":"LUVAS Hisar","licenseBody":"State Animal Husbandry Dept","registrationNumber":"PV/KA/2017/28225","village":"Sonpur Khurd","city":"Varanasi","district":"Surat Rural","state":"Karnataka","stateCode":"KA","lat":11.64707,"lng":76.62175,"yearsExperience":18,"languages":["hi"],"available":true},{"id":"paravet-ka170","type":"paravet","name":"Dr. Amit Patel","phone":"916565785967","email":"amit.patel21@vetmail.in","qualification":"BVSc & AH (Paravet extension)","college":"MAFSU Nagpur","licenseBody":"State Animal Husbandry Dept","registrationNumber":"PV/KA/2013/41311","village":"Gangapur Nagar","city":"Mysuru","district":"Guwahati Rural","state":"Karnataka","stateCode":"KA","lat":13.2405,"lng":77.58611,"yearsExperience":10,"languages":["hi"],"available":true},{"id":"vet-ka171","type":"vet","name":"Harish Verma Devi","phone":"918051362839","email":"harish.verma67@vetmail.in","qualification":"BVSc & AH, MVSc","college":"AAU Anand","licenseBody":"Veterinary Council of India","registrationNumber":"VCI/KA/2010/42019","village":"Bajpur","city":"Raipur","district":"Ahmedabad","state":"Karnataka","stateCode":"KA","lat":11.08446,"lng":76.26371,"yearsExperience":1,"languages":["hi"],"available":true},{"id":"paravet-ka172","type":"paravet","name":"Dr. Kavita Singh","phone":"919807397394","email":"kavita.singh11@vetmail.in","qualification":"BVSc & AH (Paravet extension)","college":"OUAT Bhubaneswar","licenseBody":"State Animal Husbandry Dept","registrationNumber":"PV/KA/2017/38353","village":"Shivpuri Kalan","city":"Indore","district":"Mysuru District","state":"Karnataka","stateCode":"KA","lat":15.1828,"lng":78.35523,"yearsExperience":3,"languages":["hi","en"],"available":true},{"id":"vet-ka173","type":"vet","name":"Dr. Pradeep Singh","phone":"916560274821","email":"pradeep.singh51@vetmail.in","qualification":"BVSc & AH","college":"KVAFSU Bidar","licenseBody":"Veterinary Council of India","registrationNumber":"VCI/KA/2019/57236","village":"Govindpur","city":"Ahmedabad","district":"Kanpur Rural","state":"Karnataka","stateCode":"KA","lat":11.60976,"lng":79.42121,"yearsExperience":26,"languages":["hi","en"],"available":false},{"id":"paravet-ka174","type":"paravet","name":"Dr. Arun Gupta","phone":"919026143625","email":"arun.gupta5@vetmail.in","qualification":"Certificate in Livestock Health Worker (LHW)","college":"LUVAS Hisar","licenseBody":"State Animal Husbandry Dept","registrationNumber":"PV/KA/2014/31888","village":"Krishnapur","city":"Kanpur","district":"Rajkot Rural","state":"Karnataka","stateCode":"KA","lat":15.10707,"lng":79.58494,"yearsExperience":26,"languages":["hi"],"available":true},{"id":"vet-ka175","type":"vet","name":"Dr. Rekha Thakur","phone":"917572705266","email":"rekha.thakur62@vetmail.in","qualification":"BVSc & AH, MVSc (Surgery)","college":"Bihar Veterinary College","licenseBody":"Veterinary Council of India","registrationNumber":"VCI/KA/2018/37922","village":null,"city":"Ludhiana","district":"Coimbatore Rural","state":"Karnataka","stateCode":"KA","lat":15.08867,"lng":76.38139,"yearsExperience":26,"languages":["hi","en"],"available":true},{"id":"vet-ka176","type":"vet","name":"Dr. Arun Reddy","phone":"917378698764","email":"arun.reddy66@vetmail.in","qualification":"BVSc & AH","college":"Assam Agricultural University","licenseBody":"Veterinary Council of India","registrationNumber":"VCI/KA/2015/27538","village":null,"city":"Bhubaneswar","district":"Indore","state":"Karnataka","stateCode":"KA","lat":11.28124,"lng":78.21574,"yearsExperience":5,"languages":["hi"],"available":true},{"id":"vet-ka177","type":"vet","name":"Dr. Manoj Devi","phone":"917614046367","email":"manoj.devi53@vetmail.in","qualification":"BVSc & AH, MVSc (Surgery)","college":"WBUAFS Kolkata","licenseBody":"Veterinary Council of India","registrationNumber":"VCI/KA/2012/67373","village":"Kheri","city":"Pune","district":"Meerut District","state":"Karnataka","stateCode":"KA","lat":14.21879,"lng":75.39484,"yearsExperience":16,"languages":["hi"],"available":true},{"id":"paravet-ka178","type":"paravet","name":"Dr. Pooja Mishra","phone":"917539446086","email":"pooja.mishra63@vetmail.in","qualification":"BVSc & AH (Paravet extension)","college":"GBPUAT Pantnagar","licenseBody":"State Animal Husbandry Dept","registrationNumber":"PV/KA/2011/37087","village":null,"city":"Patna","district":"Bhopal District","state":"Karnataka","stateCode":"KA","lat":15.00151,"lng":77.88587,"yearsExperience":24,"languages":["hi","en"],"available":true},{"id":"paravet-ka179","type":"paravet","name":"Dr. Suresh Singh","phone":"916947628690","email":"suresh.singh84@vetmail.in","qualification":"Diploma in Animal Husbandry (DAH)","college":"Bihar Veterinary College","licenseBody":"State Animal Husbandry Dept","registrationNumber":"PV/KA/2019/52952","village":null,"city":"Pune","district":"Guwahati","state":"Karnataka","stateCode":"KA","lat":12.24839,"lng":78.46042,"yearsExperience":22,"languages":["hi","en"],"available":true},{"id":"paravet-ka180","type":"paravet","name":"Dr. Suman Rao","phone":"918526942863","email":"suman.rao59@vetmail.in","qualification":"BVSc & AH (Paravet extension)","college":"KVK Extension","licenseBody":"State Animal Husbandry Dept","registrationNumber":"PV/KA/2022/79639","village":"Chandpur Nagar","city":"Jaipur","district":"Meerut","state":"Karnataka","stateCode":"KA","lat":12.39258,"lng":75.58754,"yearsExperience":28,"languages":["hi","en"],"available":true},{"id":"paravet-ka181","type":"paravet","name":"Rajesh Sharma Devi","phone":"918440408028","email":"rajesh.sharma2@vetmail.in","qualification":"Certificate in Livestock Health Worker (LHW)","college":"KVAFSU Bidar","licenseBody":"State Animal Husbandry Dept","registrationNumber":"PV/KA/2018/49875","village":"Govindpur","city":"Mysuru","district":"Meerut District","state":"Karnataka","stateCode":"KA","lat":11.30999,"lng":76.1708,"yearsExperience":27,"languages":["hi","en"],"available":true},{"id":"vet-ka182","type":"vet","name":"Dr. Sunil Kaur","phone":"918188534351","email":"sunil.kaur15@vetmail.in","qualification":"BVSc & AH, MVSc (Surgery)","college":"MAFSU Nagpur","licenseBody":"Veterinary Council of India","registrationNumber":"VCI/KA/2019/52590","village":"Sultanpur Khurd","city":"Amritsar","district":"Mysuru District","state":"Karnataka","stateCode":"KA","lat":13.41051,"lng":78.93157,"yearsExperience":5,"languages":["hi","en"],"available":true},{"id":"paravet-ka183","type":"paravet","name":"Dr. Gopal Rao","phone":"918640963229","email":"gopal.rao69@vetmail.in","qualification":"BVSc & AH (Paravet extension)","college":"Kerala Veterinary University","licenseBody":"State Animal Husbandry Dept","registrationNumber":"PV/KA/2012/31470","village":"Sonpur","city":"Amritsar","district":"Pune Rural","state":"Karnataka","stateCode":"KA","lat":13.49492,"lng":79.70464,"yearsExperience":23,"languages":["hi","en"],"available":true},{"id":"paravet-ka184","type":"paravet","name":"Dr. Meena Thakur","phone":"916234361550","email":"meena.thakur60@vetmail.in","qualification":"BVSc & AH (Paravet extension)","college":"Bihar Veterinary College","licenseBody":"State Animal Husbandry Dept","registrationNumber":"PV/KA/2010/34244","village":"Rampur Kalan","city":"Meerut","district":"Jaipur District","state":"Karnataka","stateCode":"KA","lat":10.86137,"lng":77.04148,"yearsExperience":10,"languages":["hi","en"],"available":false},{"id":"vet-ka185","type":"vet","name":"Dr. Deepak Nair","phone":"918431983038","email":"deepak.nair98@vetmail.in","qualification":"BVSc & AH, MVSc (Surgery)","college":"Assam Agricultural University","licenseBody":"Veterinary Council of India","registrationNumber":"VCI/KA/2022/86839","village":"Chandpur","city":"Ludhiana","district":"Raipur Rural","state":"Karnataka","stateCode":"KA","lat":14.19825,"lng":78.81445,"yearsExperience":3,"languages":["hi","en"],"available":true},{"id":"paravet-ka186","type":"paravet","name":"Dr. Sarita Reddy","phone":"916251164509","email":"sarita.reddy55@vetmail.in","qualification":"Certificate in Livestock Health Worker (LHW)","college":"OUAT Bhubaneswar","licenseBody":"State Animal Husbandry Dept","registrationNumber":"PV/KA/2015/20593","village":"Bajpur Nagar","city":"Agra","district":"Jaipur","state":"Karnataka","stateCode":"KA","lat":13.31572,"lng":76.67248,"yearsExperience":6,"languages":["hi","en"],"available":true},{"id":"paravet-ka187","type":"paravet","name":"Dr. Harish Nair","phone":"916023682136","email":"harish.nair37@vetmail.in","qualification":"Certificate in Livestock Health Worker (LHW)","college":"MAFSU Nagpur","licenseBody":"State Animal Husbandry Dept","registrationNumber":"PV/KA/2018/33622","village":"Sultanpur Nagar","city":"Madurai","district":"Varanasi District","state":"Karnataka","stateCode":"KA","lat":13.3819,"lng":76.85766,"yearsExperience":17,"languages":["hi","en"],"available":true},{"id":"paravet-ka188","type":"paravet","name":"Dr. Sunita Pandey","phone":"919431208901","email":"sunita.pandey61@vetmail.in","qualification":"NDDB AI Technician + Animal Health","college":"LUVAS Hisar","licenseBody":"State Animal Husbandry Dept","registrationNumber":"PV/KA/2022/90037","village":"Rampur Khurd","city":"Coimbatore","district":"Madurai District","state":"Karnataka","stateCode":"KA","lat":13.49006,"lng":79.69901,"yearsExperience":20,"languages":["hi","en"],"available":true},{"id":"paravet-ka189","type":"paravet","name":"Dr. Lakshmi Sharma","phone":"916467870398","email":"lakshmi.sharma26@vetmail.in","qualification":"Diploma in Animal Husbandry (DAH)","college":"Bihar Veterinary College","licenseBody":"State Animal Husbandry Dept","registrationNumber":"PV/KA/2011/22239","village":null,"city":"Patna","district":"Surat District","state":"Karnataka","stateCode":"KA","lat":13.16369,"lng":76.30559,"yearsExperience":15,"languages":["hi","en"],"available":true},{"id":"paravet-ka190","type":"paravet","name":"Dr. Ravi Mishra","phone":"916800653598","email":"ravi.mishra92@vetmail.in","qualification":"NDDB AI Technician + Animal Health","college":"DUVASU Mathura","licenseBody":"State Animal Husbandry Dept","registrationNumber":"PV/KA/2010/15700","village":"Krishnapur Kalan","city":"Madurai","district":"Ahmedabad Rural","state":"Karnataka","stateCode":"KA","lat":10.8258,"lng":75.89297,"yearsExperience":27,"languages":["hi","en"],"available":true},{"id":"paravet-ka191","type":"paravet","name":"Dr. Pradeep Pandey","phone":"917694416999","email":"pradeep.pandey64@vetmail.in","qualification":"Certificate in Livestock Health Worker (LHW)","college":"AAU Anand","licenseBody":"State Animal Husbandry Dept","registrationNumber":"PV/KA/2010/77798","village":null,"city":"Patna","district":"Bhopal","state":"Karnataka","stateCode":"KA","lat":13.20023,"lng":78.59834,"yearsExperience":19,"languages":["hi"],"available":false},{"id":"vet-ka192","type":"vet","name":"Dr. Pooja Das","phone":"917663248938","email":"pooja.das52@vetmail.in","qualification":"BVSc & AH, MVSc (Surgery)","college":"IVRI Bareilly","licenseBody":"Veterinary Council of India","registrationNumber":"VCI/KA/2017/97462","village":"Sitapur","city":"Jaipur","district":"Ahmedabad District","state":"Karnataka","stateCode":"KA","lat":12.73039,"lng":77.01207,"yearsExperience":9,"languages":["hi","en"],"available":true},{"id":"paravet-ka193","type":"paravet","name":"Dr. Ashok Yadav","phone":"917728967058","email":"ashok.yadav69@vetmail.in","qualification":"Diploma in Animal Husbandry (DAH)","college":"IVRI Bareilly","licenseBody":"State Animal Husbandry Dept","registrationNumber":"PV/KA/2011/87786","village":"Sultanpur Kalan","city":"Indore","district":"Pune","state":"Karnataka","stateCode":"KA","lat":15.15236,"lng":79.66714,"yearsExperience":2,"languages":["hi","en"],"available":true},{"id":"vet-ka194","type":"vet","name":"Dr. Gopal Gupta","phone":"917607069873","email":"gopal.gupta45@vetmail.in","qualification":"BVSc & AH","college":"IVRI Bareilly","licenseBody":"Veterinary Council of India","registrationNumber":"VCI/KA/2017/32689","village":"Mohanpur","city":"Patna","district":"Meerut District","state":"Karnataka","stateCode":"KA","lat":14.33442,"lng":77.19301,"yearsExperience":1,"languages":["hi"],"available":true},{"id":"paravet-ka195","type":"paravet","name":"Dr. Rekha Mehta","phone":"917110118329","email":"rekha.mehta98@vetmail.in","qualification":"NDDB AI Technician + Animal Health","college":"GBPUAT Pantnagar","licenseBody":"State Animal Husbandry Dept","registrationNumber":"PV/KA/2016/36993","village":"Sultanpur Khurd","city":"Mysuru","district":"Jaipur District","state":"Karnataka","stateCode":"KA","lat":12.6817,"lng":79.0242,"yearsExperience":17,"languages":["hi"],"available":true},{"id":"paravet-ka196","type":"paravet","name":"Dr. Deepak Singh","phone":"917340368795","email":"deepak.singh50@vetmail.in","qualification":"BVSc & AH (Paravet extension)","college":"GBPUAT Pantnagar","licenseBody":"State Animal Husbandry Dept","registrationNumber":"PV/KA/2021/39311","village":"Bharatpur Nagar","city":"Meerut","district":"Coimbatore","state":"Karnataka","stateCode":"KA","lat":13.26809,"lng":76.95412,"yearsExperience":6,"languages":["hi","en"],"available":true},{"id":"paravet-ka197","type":"paravet","name":"Dr. Harish Thakur","phone":"917180451775","email":"harish.thakur50@vetmail.in","qualification":"BVSc & AH (Paravet extension)","college":"Assam Agricultural University","licenseBody":"State Animal Husbandry Dept","registrationNumber":"PV/KA/2018/13686","village":"Patti Kalan","city":"Lucknow","district":"Hubballi","state":"Karnataka","stateCode":"KA","lat":13.97826,"lng":75.62738,"yearsExperience":18,"languages":["hi","en"],"available":true},{"id":"vet-ka198","type":"vet","name":"Dr. Neha Sharma","phone":"918742601852","email":"neha.sharma53@vetmail.in","qualification":"BVSc & AH, MVSc (Surgery)","college":"WBUAFS Kolkata","licenseBody":"Veterinary Council of India","registrationNumber":"VCI/KA/2012/74518","village":null,"city":"Rajkot","district":"Hubballi Rural","state":"Karnataka","stateCode":"KA","lat":15.14285,"lng":75.65259,"yearsExperience":9,"languages":["hi","en"],"available":true},{"id":"vet-ka199","type":"vet","name":"Dr. Suman Kaur","phone":"918526839171","email":"suman.kaur94@vetmail.in","qualification":"BVSc & AH, MVSc (Surgery)","college":"KVAFSU Bidar","licenseBody":"Veterinary Council of India","registrationNumber":"VCI/KA/2017/85450","village":"Sultanpur Nagar","city":"Patna","district":"Meerut Rural","state":"Karnataka","stateCode":"KA","lat":12.61237,"lng":75.46247,"yearsExperience":11,"languages":["hi"],"available":false},{"id":"paravet-ka200","type":"paravet","name":"Dr. Deepak Verma","phone":"919440876599","email":"deepak.verma86@vetmail.in","qualification":"NDDB AI Technician + Animal Health","college":"KVAFSU Bidar","licenseBody":"State Animal Husbandry Dept","registrationNumber":"PV/KA/2013/13317","village":null,"city":"Coimbatore","district":"Rajkot District","state":"Karnataka","stateCode":"KA","lat":12.31011,"lng":77.06933,"yearsExperience":27,"languages":["hi","en"],"available":true},{"id":"vet-ka201","type":"vet","name":"Dr. Mohan Yadav","phone":"916386769079","email":"mohan.yadav59@vetmail.in","qualification":"BVSc & AH, MVSc (Medicine)","college":"GADVASU Ludhiana","licenseBody":"Veterinary Council of India","registrationNumber":"VCI/KA/2022/29977","village":"Chandpur","city":"Guwahati","district":"Coimbatore District","state":"Karnataka","stateCode":"KA","lat":12.40345,"lng":75.5841,"yearsExperience":6,"languages":["hi"],"available":true},{"id":"paravet-ka202","type":"paravet","name":"Dr. Vijay Mehta","phone":"918531536515","email":"vijay.mehta13@vetmail.in","qualification":"BVSc & AH (Paravet extension)","college":"Rajasthan University of Veterinary Sciences","licenseBody":"State Animal Husbandry Dept","registrationNumber":"PV/KA/2018/80508","village":"Nagar Kalan","city":"Madurai","district":"Ranchi Rural","state":"Karnataka","stateCode":"KA","lat":12.12319,"lng":76.28332,"yearsExperience":9,"languages":["hi","en"],"available":true},{"id":"vet-ka203","type":"vet","name":"Dr. Geeta Kaur","phone":"916233677148","email":"geeta.kaur98@vetmail.in","qualification":"BVSc & AH","college":"TANUVAS Chennai","licenseBody":"Veterinary Council of India","registrationNumber":"VCI/KA/2015/14229","village":"Lakhanpur Kalan","city":"Bhopal","district":"Jaipur","state":"Karnataka","stateCode":"KA","lat":14.70798,"lng":76.75463,"yearsExperience":22,"languages":["hi"],"available":true},{"id":"paravet-ka204","type":"paravet","name":"Dr. Sunita Pandey","phone":"918264150100","email":"sunita.pandey72@vetmail.in","qualification":"NDDB AI Technician + Animal Health","college":"OUAT Bhubaneswar","licenseBody":"State Animal Husbandry Dept","registrationNumber":"PV/KA/2016/65335","village":"Kheri Kalan","city":"Ahmedabad","district":"Guwahati","state":"Karnataka","stateCode":"KA","lat":13.22113,"lng":75.49602,"yearsExperience":4,"languages":["hi","en"],"available":true},{"id":"vet-ka205","type":"vet","name":"Dr. Sunil Pandey","phone":"917624573062","email":"sunil.pandey66@vetmail.in","qualification":"BVSc & AH","college":"LUVAS Hisar","licenseBody":"Veterinary Council of India","registrationNumber":"VCI/KA/2015/20563","village":null,"city":"Jaipur","district":"Madurai","state":"Karnataka","stateCode":"KA","lat":14.38886,"lng":78.62742,"yearsExperience":8,"languages":["hi","en"],"available":true},{"id":"paravet-ka206","type":"paravet","name":"Dr. Deepak Mehta","phone":"918085677227","email":"deepak.mehta4@vetmail.in","qualification":"NDDB AI Technician + Animal Health","college":"KVAFSU Bidar","licenseBody":"State Animal Husbandry Dept","registrationNumber":"PV/KA/2023/56585","village":"Khurd Kalan","city":"Guwahati","district":"Mysuru","state":"Karnataka","stateCode":"KA","lat":12.13263,"lng":76.36337,"yearsExperience":19,"languages":["hi"],"available":true},{"id":"vet-ka207","type":"vet","name":"Dr. Ravi Singh","phone":"917724557809","email":"ravi.singh96@vetmail.in","qualification":"BVSc & AH, MVSc","college":"OUAT Bhubaneswar","licenseBody":"Veterinary Council of India","registrationNumber":"VCI/KA/2023/88616","village":"Sultanpur","city":"Madurai","district":"Amritsar","state":"Karnataka","stateCode":"KA","lat":12.48664,"lng":78.75633,"yearsExperience":5,"languages":["hi","en"],"available":true},{"id":"paravet-ka208","type":"paravet","name":"Dr. Kavita Rao","phone":"917212719058","email":"kavita.rao54@vetmail.in","qualification":"Diploma in Animal Husbandry (DAH)","college":"GBPUAT Pantnagar","licenseBody":"State Animal Husbandry Dept","registrationNumber":"PV/KA/2020/90350","village":null,"city":"Bhopal","district":"Jaipur","state":"Karnataka","stateCode":"KA","lat":11.68876,"lng":75.5416,"yearsExperience":22,"languages":["hi","en"],"available":true},{"id":"paravet-ka209","type":"paravet","name":"Dr. Sarita Kumar","phone":"919532448137","email":"sarita.kumar78@vetmail.in","qualification":"Diploma in Animal Husbandry (DAH)","college":"Rajasthan University of Veterinary Sciences","licenseBody":"State Animal Husbandry Dept","registrationNumber":"PV/KA/2015/86313","village":null,"city":"Kanpur","district":"Nagpur District","state":"Karnataka","stateCode":"KA","lat":13.93606,"lng":77.0915,"yearsExperience":18,"languages":["hi","en"],"available":true},