[{"id":"paravet-mh0","type":"paravet","name":"Dr. Vijay Yadav","phone":"918059584636","email":"vijay.yadav42@vetmail.in","qualification":"NDDB AI Technician + Animal Health","college":"DUVASU Mathura","licenseBody":"State Animal Husbandry Dept","registrationNumber":"PV/MH/2013/32140","village":"Chandpur Khurd","city":"Bhubaneswar","district":"Kanpur Rural","state":"Maharashtra","stateCode":"MH","lat":18.23703,"lng":72.22507,"yearsExperience":3,"languages":["hi","en"],"available":true},{"id":"vet-mh1","type":"vet","name":"Dr. Meena Singh","phone":"919646220382","email":"meena.singh39@vetmail.in","qualification":"BVSc & AH, MVSc (Medicine)","college":"Kerala Veterinary University","licenseBody":"Veterinary Council of India","registrationNumber":"VCI/MH/2010/63877","village":null,"city":"Amritsar","district":"Jaipur","state":"Maharashtra","stateCode":"MH","lat":17.94241,"lng":72.05459,"yearsExperience":6,"languages":["hi"],"available":true},{"id":"paravet-mh2","type":"paravet","name":"Dr. Pooja Verma","phone":"918101370807","email":"pooja.verma12@vetmail.in","qualification":"Diploma in Animal Husbandry (DAH)","college":"GADVASU Ludhiana","licenseBody":"State Animal Husbandry Dept","registrationNumber":"PV/MH/2021/43960","village":"Kishanpur Kalan","city":"Surat","district":"Guwahati District","state":"Maharashtra","stateCode":"MH","lat":18.28784,"lng":72.11598,"yearsExperience":3,"languages":["hi","en"],"available":true},{"id":"vet-mh3","type":"vet","name":"Dr. Rekha Mishra","phone":"917791692451","email":"rekha.mishra17@vetmail.in","qualification":"BVSc & AH, MVSc","college":"GADVASU Ludhiana","licenseBody":"Veterinary Council of India","registrationNumber":"VCI/MH/2013/52378","village":"Nagar Khurd","city":"Ahmedabad","district":"Ludhiana District","state":"Maharashtra","stateCode":"MH","lat":18.42975,"lng":70.72338,"yearsExperience":23,"languages":["hi","en"],"available":true},{"id":"vet-mh4","type":"vet","name":"Sanjay Kaur Devi","phone":"918741003225","email":"sanjay.kaur77@vetmail.in","qualification":"BVSc & AH, MVSc (Medicine)","college":"WBUAFS Kolkata","licenseBody":"Veterinary Council of India","registrationNumber":"VCI/MH/2014/90384","village":"Bajpur","city":"Patna","district":"Mysuru","state":"Maharashtra","stateCode":"MH","lat":19.4792,"lng":73.87002,"yearsExperience":10,"languages":["hi","en"],"available":false},{"id":"paravet-mh5","type":"paravet","name":"Dr. Vijay Mehta","phone":"917425478891","email":"vijay.mehta86@vetmail.in","qualification":"NDDB AI Technician + Animal Health","college":"KVAFSU Bidar","licenseBody":"State Animal Husbandry Dept","registrationNumber":"PV/MH/2014/42994","village":"Chandpur Khurd","city":"Agra","district":"Coimbatore District","state":"Maharashtra","stateCode":"MH","lat":17.96898,"lng":70.70118,"yearsExperience":14,"languages":["hi","en"],"available":true},{"id":"paravet-mh6","type":"paravet","name":"Dr. Ravi Kumar","phone":"918116906318","email":"ravi.kumar46@vetmail.in","qualification":"BVSc & AH (Paravet extension)","college":"Kerala Veterinary University","licenseBody":"State Animal Husbandry Dept","registrationNumber":"PV/MH/2023/20831","village":null,"city":"Coimbatore","district":"Patna Rural","state":"Maharashtra","stateCode":"MH","lat":17.69018,"lng":73.16066,"yearsExperience":23,"languages":["hi","en"],"available":true},{"id":"paravet-mh7","type":"paravet","name":"Mohan Reddy Devi","phone":"918391755073","email":"mohan.reddy73@vetmail.in","qualification":"Certificate in Livestock Health Worker (LHW)","college":"IVRI Bareilly","licenseBody":"State Animal Husbandry Dept","registrationNumber":"PV/MH/2015/10516","village":"Bharatpur Kalan","city":"Indore","district":"Raipur","state":"Maharashtra","stateCode":"MH","lat":18.97702,"lng":72.44055,"yearsExperience":6,"languages":["hi"],"available":true},{"id":"vet-mh8","type":"vet","name":"Dr. Meena Thakur","phone":"916921857465","email":"meena.thakur87@vetmail.in","qualification":"BVSc & AH, MVSc (Medicine)","college":"OUAT Bhubaneswar","licenseBody":"Veterinary Council of India","registrationNumber":"VCI/MH/2021/12991","village":"Khurd Khurd","city":"Madurai","district":"Kanpur","state":"Maharashtra","stateCode":"MH","lat":18.7344,"lng":70.69392,"yearsExperience":6,"languages":["hi"],"available":false},{"id":"vet-mh9","type":"vet","name":"Dr. Vijay Joshi","phone":"919283845016","email":"vijay.joshi50@vetmail.in","qualification":"BVSc & AH, MVSc (Medicine)","college":"Assam Agricultural University","licenseBody":"Veterinary Council of India","registrationNumber":"VCI/MH/2022/63096","village":"Basantpur Khurd","city":"Surat","district":"Lucknow District","state":"Maharashtra","stateCode":"MH","lat":18.9285,"lng":73.73137,"yearsExperience":1,"languages":["hi","en"],"available":true},{"id":"vet-mh10","type":"vet","name":"Dr. Rekha Saini","phone":"916512553910","email":"rekha.saini24@vetmail.in","qualification":"BVSc & AH, MVSc","college":"MAFSU Nagpur","licenseBody":"Veterinary Council of India","registrationNumber":"VCI/MH/2019/41511","village":"Kheri Khurd","city":"Rajkot","district":"Agra District","state":"Maharashtra","stateCode":"MH","lat":20.84451,"lng":72.73668,"yearsExperience":15,"languages":["hi"],"available":true},{"id":"vet-mh11","type":"vet","name":"Dr. Lakshmi Kumar","phone":"917626642839","email":"lakshmi.kumar35@vetmail.in","qualification":"BVSc & AH, MVSc (Surgery)","college":"KVAFSU Bidar","licenseBody":"Veterinary Council of India","registrationNumber":"VCI/MH/2017/27802","village":null,"city":"Meerut","district":"Indore","state":"Maharashtra","stateCode":"MH","lat":21.22037,"lng":72.17883,"yearsExperience":18,"languages":["hi","en"],"available":true},{"id":"vet-mh12","type":"vet","name":"Dr. Suman Sharma","phone":"918816132493","email":"suman.sharma4@vetmail.in","qualification":"BVSc & AH, MVSc","college":"Assam Agricultural University","licenseBody":"Veterinary Council of India","registrationNumber":"VCI/MH/2023/27249","village":null,"city":"Agra","district":"Patna District","state":"Maharashtra","stateCode":"MH","lat":18.53173,"lng":73.15413,"yearsExperience":5,"languages":["hi"],"available":false},{"id":"paravet-mh13","type":"paravet","name":"Dr. Pooja Thakur","phone":"917913608495","email":"pooja.thakur36@vetmail.in","qualification":"Certificate in Livestock Health Worker (LHW)","college":"Kerala Veterinary University","licenseBody":"State Animal Husbandry Dept","registrationNumber":"PV/MH/2013/62725","village":null,"city":"Ahmedabad","district":"Ludhiana","state":"Maharashtra","stateCode":"MH","lat":20.45352,"lng":72.34768,"yearsExperience":25,"languages":["hi","en"],"available":true},{"id":"paravet-mh14","type":"paravet","name":"Dr. Dinesh Devi","phone":"917325359087","email":"dinesh.devi22@vetmail.in","qualification":"Diploma in Animal Husbandry (DAH)","college":"TANUVAS Chennai","licenseBody":"State Animal Husbandry Dept","registrationNumber":"PV/MH/2014/69169","village":"Gangapur Kalan","city":"Mysuru","district":"Jaipur District","state":"Maharashtra","stateCode":"MH","lat":18.14041,"lng":73.97455,"yearsExperience":11,"languages":["hi","en"],"available":true},{"id":"vet-mh15","type":"vet","name":"Deepak Saini Devi","phone":"916306012434","email":"deepak.saini89@vetmail.in","qualification":"BVSc & AH, MVSc (Surgery)","college":"AAU Anand","licenseBody":"Veterinary Council of India","registrationNumber":"VCI/MH/2018/21155","village":"Lakhanpur Kalan","city":"Patna","district":"Meerut District","state":"Maharashtra","stateCode":"MH","lat":18.93767,"lng":71.17399,"yearsExperience":17,"languages":["hi","en"],"available":true},{"id":"paravet-mh16","type":"paravet","name":"Dr. Amit Sharma","phone":"918981515648","email":"amit.sharma41@vetmail.in","qualification":"BVSc & AH (Paravet extension)","college":"GBPUAT Pantnagar","licenseBody":"State Animal Husbandry Dept","registrationNumber":"PV/MH/2018/33335","village":"Sonpur","city":"Jaipur","district":"Bhopal Rural","state":"Maharashtra","stateCode":"MH","lat":17.43201,"lng":74.28601,"yearsExperience":10,"languages":["hi","en"],"available":true},{"id":"paravet-mh17","type":"paravet","name":"Dr. Sunil Kumar","phone":"919737488384","email":"sunil.kumar93@vetmail.in","qualification":"Diploma in Animal Husbandry (DAH)","college":"IVRI Bareilly","licenseBody":"State Animal Husbandry Dept","registrationNumber":"PV/MH/2020/60018","village":"Basantpur","city":"Varanasi","district":"Patna District","state":"Maharashtra","stateCode":"MH","lat":20.01347,"lng":72.56586,"yearsExperience":2,"languages":["hi","en"],"available":true},{"id":"paravet-mh18","type":"paravet","name":"Dr. Arun Mishra","phone":"919328367767","email":"arun.mishra70@vetmail.in","qualification":"Certificate in Livestock Health Worker (LHW)","college":"TANUVAS Chennai","licenseBody":"State Animal Husbandry Dept","registrationNumber":"PV/MH/2017/25340","village":null,"city":"Varanasi","district":"Ranchi District","state":"Maharashtra","stateCode":"MH","lat":18.0319,"lng":74.97037,"yearsExperience":2,"languages":["hi","en"],"available":true},{"id":"paravet-mh19","type":"paravet","name":"Dr. Pooja Reddy","phone":"916471816698","email":"pooja.reddy71@vetmail.in","qualification":"BVSc & AH (Paravet extension)","college":"Assam Agricultural University","licenseBody":"State Animal Husbandry Dept","registrationNumber":"PV/MH/2018/20444","village":"Basantpur Kalan","city":"Bhubaneswar","district":"Nagpur Rural","state":"Maharashtra","stateCode":"MH","lat":19.47854,"lng":73.1295,"yearsExperience":16,"languages":["hi"],"available":true},{"id":"paravet-mh20","type":"paravet","name":"Dr. Geeta Das","phone":"918497338309","email":"geeta.das50@vetmail.in","qualification":"BVSc & AH (Paravet extension)","college":"GADVASU Ludhiana","licenseBody":"State Animal Husbandry Dept","registrationNumber":"PV/MH/2021/89492","village":null,"city":"Ludhiana","district":"Indore District","state":"Maharashtra","stateCode":"MH","lat":18.27948,"lng":70.98148,"yearsExperience":21,"languages":["hi"],"available":true},{"id":"paravet-mh21","type":"paravet","name":"Dr. Pooja Mehta","phone":"919830419561","email":"pooja.mehta24@vetmail.in","qualification":"BVSc & AH (Paravet extension)","college":"Bihar Veterinary College","licenseBody":"State Animal Husbandry Dept","registrationNumber":"PV/MH/2019/52172","village":null,"city":"Madurai","district":"Rajkot Rural","state":"Maharashtra","stateCode":"MH","lat":17.48483,"lng":71.90839,"yearsExperience":11,"languages":["hi"],"available":true},{"id":"paravet-mh22","type":"paravet","name":"Dr. Vinod Mehta","phone":"919070247280","email":"vinod.mehta41@vetmail.in","qualification":"Certificate in Livestock Health Worker (LHW)","college":"MAFSU Nagpur","licenseBody":"State Animal Husbandry Dept","registrationNumber":"PV/MH/2016/72307","village":"Sultanpur Nagar","city":"Varanasi","district":"Varanasi Rural","state":"Maharashtra","stateCode":"MH","lat":19.47613,"lng":71.86176,"yearsExperience":11,"languages":["hi"],"available":true},{"id":"paravet-mh23","type":"paravet","name":"Dr. Mohan Gupta","phone":"916864185821","email":"mohan.gupta16@vetmail.in","qualification":"NDDB AI Technician + Animal Health","college":"Bihar Veterinary College","licenseBody":"State Animal Husbandry Dept","registrationNumber":"PV/MH/2022/78776","village":"Bajpur","city":"Bhopal","district":"Indore District","state":"Maharashtra","stateCode":"MH","lat":19.47648,"lng":72.32221,"yearsExperience":9,"languages":["hi","en"],"available":false},{"id":"paravet-mh24","type":"paravet","name":"Dr. Harish Devi","phone":"919660681627","email":"harish.devi39@vetmail.in","qualification":"BVSc & AH (Paravet extension)","college":"Bihar Veterinary College","licenseBody":"State Animal Husbandry Dept","registrationNumber":"PV/MH/2010/23960","village":"Krishnapur Khurd","city":"Coimbatore","district":"Jaipur","state":"Maharashtra","stateCode":"MH","lat":17.81558,"lng":72.51563,"yearsExperience":12,"languages":["hi","en"],"available":true},{"id":"vet-mh25","type":"vet","name":"Dr. Ashok Mehta","phone":"919340326882","email":"ashok.mehta2@vetmail.in","qualification":"BVSc & AH, MVSc (Surgery)","college":"DUVASU Mathura","licenseBody":"Veterinary Council of India","registrationNumber":"VCI/MH/2011/24597","village":"Rampur Khurd","city":"Raipur","district":"Bhubaneswar District","state":"Maharashtra","stateCode":"MH","lat":18.42747,"lng":74.18843,"yearsExperience":7,"languages":["hi","en"],"available":true},{"id":"vet-mh26","type":"vet","name":"Dr. Rekha Pandey","phone":"917347823425","email":"rekha.pandey28@vetmail.in","qualification":"BVSc & AH, MVSc (Medicine)","college":"Rajasthan University of Veterinary Sciences","licenseBody":"Veterinary Council of India","registrationNumber":"VCI/MH/2019/74495","village":"Khurd Khurd","city":"Amritsar","district":"Amritsar Rural","state":"Maharashtra","stateCode":"MH","lat":18.75183,"lng":71.80304,"yearsExperience":2,"languages":["hi","en"],"available":true},{"id":"paravet-mh27","type":"paravet","name":"Dr. Meena Rao","phone":"918127715432","email":"meena.rao56@vetmail.in","qualification":"NDDB AI Technician + Animal Health","college":"AAU Anand","licenseBody":"State Animal Husbandry Dept","registrationNumber":"PV/MH/2011/47956","village":"Chandpur Khurd","city":"Bhopal","district":"Pune Rural","state":"Maharashtra","stateCode":"MH","lat":19.73068,"lng":71.33836,"yearsExperience":27,"languages":["hi"],"available":true},{"id":"vet-mh28","type":"vet","name":"Sanjay Devi Devi","phone":"918691693794","email":"sanjay.devi5@vetmail.in","qualification":"BVSc & AH, MVSc (Medicine)","college":"AAU Anand","licenseBody":"Veterinary Council of India","registrationNumber":"VCI/MH/2012/23426","village":"Nandgaon Kalan","city":"Bhubaneswar","district":"Madurai","state":"Maharashtra","stateCode":"MH","lat":19.31024,"lng":70.9114,"yearsExperience":5,"languages":["hi"],"available":true},{"id":"paravet-mh29","type":"paravet","name":"Dr. Anita Patel","phone":"918859625988","email":"anita.patel83@vetmail.in","qualification":"Diploma in Animal Husbandry (DAH)","college":"WBUAFS Kolkata","licenseBody":"State Animal Husbandry Dept","registrationNumber":"PV/MH/2017/63356","village":"Bharatpur Kalan","city":"Patna","district":"Ahmedabad District","state":"Maharashtra","stateCode":"MH","lat":20.00283,"lng":72.45503,"yearsExperience":13,"languages":["hi","en"],"available":true},{"id":"vet-mh30","type":"vet","name":"Dr. Sunita Nair","phone":"918177159386","email":"sunita.nair45@vetmail.in","qualification":"BVSc & AH","college":"Rajasthan University of Veterinary Sciences","licenseBody":"Veterinary Council of India","registrationNumber":"VCI/MH/2010/35039","village":null,"city":"Agra","district":"Amritsar Rural","state":"Maharashtra","stateCode":"MH","lat":17.46944,"lng":71.78968,"yearsExperience":4,"languages":["hi","en"],"available":true},{"id":"vet-mh31","type":"vet","name":"Dr. Rajesh Reddy","phone":"916904925077","email":"rajesh.reddy44@vetmail.in","qualification":"BVSc & AH, MVSc (Surgery)","college":"LUVAS Hisar","licenseBody":"Veterinary Council of India","registrationNumber":"VCI/MH/2012/59082","village":null,"city":"Surat","district":"Hubballi Rural","state":"Maharashtra","stateCode":"MH","lat":18.39652,"lng":74.58356,"yearsExperience":3,"languages":["hi"],"available":true},{"id":"paravet-mh32","type":"paravet","name":"Dr. Pooja Kumar","phone":"916554150620","email":"pooja.kumar18@vetmail.in","qualification":"Diploma in Animal Husbandry (DAH)","college":"GBPUAT Pantnagar","licenseBody":"State Animal Husbandry Dept","registrationNumber":"PV/MH/2010/71070","village":null,"city":"Mysuru","district":"Ranchi Rural","state":"Maharashtra","stateCode":"MH","lat":18.0066,"lng":71.35301,"yearsExperience":8,"languages":["hi"],"available":true},{"id":"vet-mh33","type":"vet","name":"Dr. Pradeep Saini","phone":"917196206971","email":"pradeep.saini88@vetmail.in","qualification":"BVSc & AH, MVSc (Medicine)","college":"TANUVAS Chennai","licenseBody":"Veterinary Council of India","registrationNumber":"VCI/MH/2021/97123","village":"Khurd Kalan","city":"Pune","district":"Ludhiana Rural","state":"Maharashtra","stateCode":"MH","lat":20.28211,"lng":74.02081,"yearsExperience":4,"languages":["hi","en"],"available":true},{"id":"paravet-mh34","type":"paravet","name":"Dr. Geeta Devi","phone":"919910019802","email":"geeta.devi29@vetmail.in","qualification":"BVSc & AH (Paravet extension)","college":"GBPUAT Pantnagar","licenseBody":"State Animal Husbandry Dept","registrationNumber":"PV/MH/2013/54541","village":null,"city":"Ludhiana","district":"Kanpur Rural","state":"Maharashtra","stateCode":"MH","lat":17.57498,"lng":71.58511,"yearsExperience":19,"languages":["hi"],"available":false},{"id":"paravet-mh35","type":"paravet","name":"Dr. Priya Patel","phone":"918461984697","email":"priya.patel84@vetmail.in","qualification":"BVSc & AH (Paravet extension)","college":"KVAFSU Bidar","licenseBody":"State Animal Husbandry Dept","registrationNumber":"PV/MH/2011/71505","village":"Sitapur Kalan","city":"Guwahati","district":"Ludhiana District","state":"Maharashtra","stateCode":"MH","lat":18.89789,"lng":70.87686,"yearsExperience":19,"languages":["hi"],"available":true},{"id":"vet-mh36","type":"vet","name":"Dr. Sanjay Thakur","phone":"919162426253","email":"sanjay.thakur67@vetmail.in","qualification":"BVSc & AH, MVSc","college":"GBPUAT Pantnagar","licenseBody":"Veterinary Council of India","registrationNumber":"VCI/MH/2014/86299","village":"Sultanpur Kalan","city":"Mysuru","district":"Guwahati District","state":"Maharashtra","stateCode":"MH","lat":17.00149,"lng":70.64488,"yearsExperience":11,"languages":["hi","en"],"available":true},{"id":"paravet-mh37","type":"paravet","name":"Dr. Vinod Das","phone":"916914202488","email":"vinod.das80@vetmail.in","qualification":"Diploma in Animal Husbandry (DAH)","college":"KVK Extension","licenseBody":"State Animal Husbandry Dept","registrationNumber":"PV/MH/2022/23465","village":"Sitapur Nagar","city":"Patna","district":"Nagpur","state":"Maharashtra","stateCode":"MH","lat":20.70598,"lng":73.18447,"yearsExperience":13,"languages":["hi","en"],"available":true},{"id":"paravet-mh38","type":"paravet","name":"Vinod Joshi Devi","phone":"918701872532","email":"vinod.joshi86@vetmail.in","qualification":"NDDB AI Technician + Animal Health","college":"TANUVAS Chennai","licenseBody":"State Animal Husbandry Dept","registrationNumber":"PV/MH/2014/78172","village":"Kheri Khurd","city":"Guwahati","district":"Ludhiana","state":"Maharashtra","stateCode":"MH","lat":20.63942,"lng":75.04973,"yearsExperience":16,"languages":["hi"],"available":true},{"id":"vet-mh39","type":"vet","name":"Dr. Sunita Das","phone":"918411229863","email":"sunita.das80@vetmail.in","qualification":"BVSc & AH, MVSc (Surgery)","college":"LUVAS Hisar","licenseBody":"Veterinary Council of India","registrationNumber":"VCI/MH/2016/31867","village":"Mohanpur Kalan","city":"Amritsar","district":"Indore","state":"Maharashtra","stateCode":"MH","lat":18.78861,"lng":74.66618,"yearsExperience":9,"languages":["hi","en"],"available":false},{"id":"vet-mh40","type":"vet","name":"Dr. Mohan Mishra","phone":"917861485468","email":"mohan.mishra19@vetmail.in","qualification":"BVSc & AH, MVSc (Medicine)","college":"AAU Anand","licenseBody":"Veterinary Council of India","registrationNumber":"VCI/MH/2017/23497","village":"Kishanpur Nagar","city":"Rajkot","district":"Ludhiana Rural","state":"Maharashtra","stateCode":"MH","lat":18.74843,"lng":73.01104,"yearsExperience":9,"languages":["hi"],"available":true},{"id":"paravet-mh41","type":"paravet","name":"Dr. Dinesh Patel","phone":"916805796972","email":"dinesh.patel2@vetmail.in","qualification":"Certificate in Livestock Health Worker (LHW)","college":"IVRI Bareilly","licenseBody":"State Animal Husbandry Dept","registrationNumber":"PV/MH/2018/73786","village":"Rampur Kalan","city":"Surat","district":"Mysuru","state":"Maharashtra","stateCode":"MH","lat":17.60753,"lng":70.67298,"yearsExperience":13,"languages":["hi","en"],"available":true},{"id":"vet-mh42","type":"vet","name":"Dr. Vijay Mehta","phone":"919932517950","email":"vijay.mehta96@vetmail.in","qualification":"BVSc & AH, MVSc (Medicine)","college":"LUVAS Hisar","licenseBody":"Veterinary Council of India","registrationNumber":"VCI/MH/2017/13987","village":null,"city":"Coimbatore","district":"Raipur Rural","state":"Maharashtra","stateCode":"MH","lat":18.14818,"lng":73.63253,"yearsExperience":27,"languages":["hi","en"],"available":true},{"id":"paravet-mh43","type":"paravet","name":"Dr. Sunita Saini","phone":"918798218991","email":"sunita.saini14@vetmail.in","qualification":"Certificate in Livestock Health Worker (LHW)","college":"LUVAS Hisar","licenseBody":"State Animal Husbandry Dept","registrationNumber":"PV/MH/2021/63985","village":null,"city":"Rajkot","district":"Agra Rural","state":"Maharashtra","stateCode":"MH","lat":17.13152,"lng":74.34394,"yearsExperience":1,"languages":["hi"],"available":true},{"id":"paravet-mh44","type":"paravet","name":"Dr. Deepak Kumar","phone":"916138926349","email":"deepak.kumar54@vetmail.in","qualification":"BVSc & AH (Paravet extension)","college":"Rajasthan University of Veterinary Sciences","licenseBody":"State Animal Husbandry Dept","registrationNumber":"PV/MH/2014/10589","village":"Nandgaon Khurd","city":"Surat","district":"Varanasi","state":"Maharashtra","stateCode":"MH","lat":17.1623,"lng":73.69989,"yearsExperience":11,"languages":["hi","en"],"available":true},{"id":"paravet-mh45","type":"paravet","name":"Dr. Pooja Verma","phone":"918001837690","email":"pooja.verma48@vetmail.in","qualification":"Diploma in Animal Husbandry (DAH)","college":"MAFSU Nagpur","licenseBody":"State Animal Husbandry Dept","registrationNumber":"PV/MH/2020/22888","village":null,"city":"Mysuru","district":"Raipur Rural","state":"Maharashtra","stateCode":"MH","lat":18.99701,"lng":74.40442,"yearsExperience":3,"languages":["hi","en"],"available":true},{"id":"paravet-mh46","type":"paravet","name":"Dr. Mohan Choudhary","phone":"916068886584","email":"mohan.choudhary22@vetmail.in","qualification":"Certificate in Livestock Health Worker (LHW)","college":"WBUAFS Kolkata","licenseBody":"State Animal Husbandry Dept","registrationNumber":"PV/MH/2020/21061","village":"Patti","city":"Kanpur","district":"Patna Rural","state":"Maharashtra","stateCode":"MH","lat":17.14172,"lng":72.97362,"yearsExperience":27,"languages":["hi"],"available":true},{"id":"vet-mh47","type":"vet","name":"Dr. Pradeep Thakur","phone":"918161666660","email":"pradeep.thakur10@vetmail.in","qualification":"BVSc & AH, MVSc","college":"TANUVAS Chennai","licenseBody":"Veterinary Council of India","registrationNumber":"VCI/MH/2019/61583","village":"Patti Khurd","city":"Bhubaneswar","district":"Meerut District","state":"Maharashtra","stateCode":"MH","lat":19.22059,"lng":73.83328,"yearsExperience":11,"languages":["hi","en"],"available":true},{"id":"vet-mh48","type":"vet","name":"Dr. Pradeep Gupta","phone":"919767907581","email":"pradeep.gupta45@vetmail.in","qualification":"BVSc & AH","college":"LUVAS Hisar","licenseBody":"Veterinary Council of India","registrationNumber":"VCI/MH/2020/27779","village":"Rampur Khurd","city":"Rajkot","district":"Hubballi District","state":"Maharashtra","stateCode":"MH","lat":20.49297,"lng":72.47216,"yearsExperience":7,"languages":["hi","en"],"available":true},{"id":"vet-mh49","type":"vet","name":"Dr. Sunita Sharma","phone":"918509593594","email":"sunita.sharma10@vetmail.in","qualification":"BVSc & AH, MVSc","college":"Rajasthan University of Veterinary Sciences","licenseBody":"Veterinary Council of India","registrationNumber":"VCI/MH/2023/94850","village":"Sonpur","city":"Ranchi","district":"Bhopal Rural","state":"Maharashtra","stateCode":"MH","lat":18.23058,"lng":70.66672,"yearsExperience":1,"languages":["hi","en"],"available":false},{"id":"vet-mh50","type":"vet","name":"Dr. Sarita Reddy","phone":"918125153705","email":"sarita.reddy63@vetmail.in","qualification":"BVSc & AH, MVSc (Medicine)","college":"Kerala Veterinary University","licenseBody":"Veterinary Council of India","registrationNumber":"VCI/MH/2018/94092","village":null,"city":"Bhopal","district":"Rajkot District","state":"Maharashtra","stateCode":"MH","lat":20.33104,"lng":72.05034,"yearsExperience":9,"languages":["hi"],"available":true},{"id":"paravet-mh51","type":"paravet","name":"Dr. Suresh Yadav","phone":"919878751739","email":"suresh.yadav33@vetmail.in","qualification":"BVSc & AH (Paravet extension)","college":"Bihar Veterinary College","licenseBody":"State Animal Husbandry Dept","registrationNumber":"PV/MH/2018/65047","village":null,"city":"Bhubaneswar","district":"Bhubaneswar","state":"Maharashtra","stateCode":"MH","lat":17.50716,"lng":75.07831,"yearsExperience":19,"languages":["hi"],"available":true},{"id":"vet-mh52","type":"vet","name":"Dr. Sanjay Mehta","phone":"916103554820","email":"sanjay.mehta32@vetmail.in","qualification":"BVSc & AH, MVSc","college":"WBUAFS Kolkata","licenseBody":"Veterinary Council of India","registrationNumber":"VCI/MH/2010/96283","village":"Govindpur Khurd","city":"Rajkot","district":"Jaipur District","state":"Maharashtra","stateCode":"MH","lat":19.45316,"lng":72.92465,"yearsExperience":14,"languages":["hi","en"],"available":true},{"id":"paravet-mh53","type":"paravet","name":"Sanjay Patel Devi","phone":"918883389316","email":"sanjay.patel1@vetmail.in","qualification":"Diploma in Animal Husbandry (DAH)","college":"GADVASU Ludhiana","licenseBody":"State Animal Husbandry Dept","registrationNumber":"PV/MH/2013/73473","village":"Bajpur","city":"Madurai","district":"Jaipur","state":"Maharashtra","stateCode":"MH","lat":21.05468,"lng":70.87922,"yearsExperience":15,"languages":["hi","en"],"available":true},{"id":"paravet-mh54","type":"paravet","name":"Dr. Lakshmi Mishra","phone":"918532793898","email":"lakshmi.mishra76@vetmail.in","qualification":"NDDB AI Technician + Animal Health","college":"TANUVAS Chennai","licenseBody":"State Animal Husbandry Dept","registrationNumber":"PV/MH/2019/84993","village":"Nandgaon Khurd","city":"Indore","district":"Guwahati District","state":"Maharashtra","stateCode":"MH","lat":19.99311,"lng":72.11306,"yearsExperience":26,"languages":["hi"],"available":true},{"id":"vet-mh55","type":"vet","name":"Dr. Neha Rao","phone":"919538919881","email":"neha.rao52@vetmail.in","qualification":"BVSc & AH, MVSc (Surgery)","college":"Rajasthan University of Veterinary Sciences","licenseBody":"Veterinary Council of India","registrationNumber":"VCI/MH/2018/35029","village":null,"city":"Indore","district":"Patna District","state":"Maharashtra","stateCode":"MH","lat":21.22579,"lng":74.53054,"yearsExperience":14,"languages":["hi"],"available":true},{"id":"vet-mh56","type":"vet","name":"Dr. Dinesh Rao","phone":"919355273307","email":"dinesh.rao10@vetmail.in","qualification":"BVSc & AH, MVSc","college":"TANUVAS Chennai","licenseBody":"Veterinary Council of India","registrationNumber":"VCI/MH/2014/60717","village":"Basantpur Kalan","city":"Madurai","district":"Indore District","state":"Maharashtra","stateCode":"MH","lat":18.9939,"lng":75.07175,"yearsExperience":4,"languages":["hi"],"available":true},{"id":"paravet-mh57","type":"paravet","name":"Dr. Lakshmi Singh","phone":"916107301092","email":"lakshmi.singh13@vetmail.in","qualification":"Certificate in Livestock Health Worker (LHW)","college":"TANUVAS Chennai","licenseBody":"State Animal Husbandry Dept","registrationNumber":"PV/MH/2018/98082","village":"Nandgaon Khurd","city":"Ahmedabad","district":"Hubballi","state":"Maharashtra","stateCode":"MH","lat":19.46127,"lng":72.06495,"yearsExperience":10,"languages":["hi","en"],"available":false},{"id":"vet-mh58","type":"vet","name":"Dr. Ashok Mishra","phone":"916193701126","email":"ashok.mishra11@vetmail.in","qualification":"BVSc & AH","college":"Rajasthan University of Veterinary Sciences","licenseBody":"Veterinary Council of India","registrationNumber":"VCI/MH/2023/73547","village":"Khurd Kalan","city":"Bhubaneswar","district":"Ahmedabad","state":"Maharashtra","stateCode":"MH","lat":20.00231,"lng":73.2636,"yearsExperience":13,"languages":["hi","en"],"available":true},{"id":"paravet-mh59","type":"paravet","name":"Dr. Rajesh Mishra","phone":"919585955645","email":"rajesh.mishra18@vetmail.in","qualification":"NDDB AI Technician + Animal Health","college":"TANUVAS Chennai","licenseBody":"State Animal Husbandry Dept","registrationNumber":"PV/MH/2022/84403","village":"Sultanpur Nagar","city":"Kanpur","district":"Agra Rural","state":"Maharashtra","stateCode":"MH","lat":18.46518,"lng":74.85444,"yearsExperience":5,"languages":["hi","en"],"available":true},{"id":"paravet-mh60","type":"paravet","name":"Dr. Lakshmi Yadav","phone":"916417958081","email":"lakshmi.yadav33@vetmail.in","qualification":"NDDB AI Technician + Animal Health","college":"IVRI Bareilly","licenseBody":"State Animal Husbandry Dept","registrationNumber":"PV/MH/2019/83535","village":"Gangapur","city":"Ranchi","district":"Jaipur","state":"Maharashtra","stateCode":"MH","lat":21.21512,"lng":74.10115,"yearsExperience":8,"languages":["hi","en"],"available":true},{"id":"paravet-mh61","type":"paravet","name":"Dr. Dinesh Kaur","phone":"918187815337","email":"dinesh.kaur87@vetmail.in","qualification":"BVSc & AH (Paravet extension)","college":"DUVASU Mathura","licenseBody":"State Animal Husbandry Dept","registrationNumber":"PV/MH/2020/95851","village":"Shivpuri Kalan","city":"Hubballi","district":"Bhubaneswar District","state":"Maharashtra","stateCode":"MH","lat":20.36647,"lng":71.15275,"yearsExperience":24,"languages":["hi","en"],"available":true},{"id":"paravet-mh62","type":"paravet","name":"Dr. Rajesh Yadav","phone":"917379716591","email":"rajesh.yadav60@vetmail.in","qualification":"Certificate in Livestock Health Worker (LHW)","college":"GBPUAT Pantnagar","licenseBody":"State Animal Husbandry Dept","registrationNumber":"PV/MH/2012/41773","village":"Bajpur Nagar","city":"Coimbatore","district":"Surat Rural","state":"Maharashtra","stateCode":"MH","lat":18.07597,"lng":72.21603,"yearsExperience":27,"languages":["hi","en"],"available":true},{"id":"paravet-mh63","type":"paravet","name":"Dr. Suresh Singh","phone":"919861776138","email":"suresh.singh87@vetmail.in","qualification":"Diploma in Animal Husbandry (DAH)","college":"GBPUAT Pantnagar","licenseBody":"State Animal Husbandry Dept","registrationNumber":"PV/MH/2014/65300","village":"Sonpur Khurd","city":"Coimbatore","district":"Bhubaneswar Rural","state":"Maharashtra","stateCode":"MH","lat":19.04649,"lng":73.68088,"yearsExperience":13,"languages":["hi","en"],"available":true},{"id":"paravet-mh64","type":"paravet","name":"Dr. Priya Patel","phone":"917635765072","email":"priya.patel93@vetmail.in","qualification":"BVSc & AH (Paravet extension)","college":"KVAFSU Bidar","licenseBody":"State Animal Husbandry Dept","registrationNumber":"PV/MH/2016/79526","village":"Chandpur","city":"Hubballi","district":"Meerut Rural","state":"Maharashtra","stateCode":"MH","lat":17.38422,"lng":70.89885,"yearsExperience":8,"languages":["hi","en"],"available":true},{"id":"vet-mh65","type":"vet","name":"Dr. Neha Das","phone":"919255018934","email":"neha.das20@vetmail.in","qualification":"BVSc & AH, MVSc","college":"KVAFSU Bidar","licenseBody":"Veterinary Council of India","registrationNumber":"VCI/MH/2021/47645","village":"Basantpur Nagar","city":"Meerut","district":"Rajkot","state":"Maharashtra","stateCode":"MH","lat":19.44892,"lng":74.36729,"yearsExperience":9,"languages":["hi","en"],"available":false},{"id":"paravet-mh66","type":"paravet","name":"Dr. Anita Gupta","phone":"918440369097","email":"anita.gupta29@vetmail.in","qualification":"Diploma in Animal Husbandry (DAH)","college":"DUVASU Mathura","licenseBody":"State Animal Husbandry Dept","registrationNumber":"PV/MH/2020/82980","village":null,"city":"Bhopal","district":"Rajkot District","state":"Maharashtra","stateCode":"MH","lat":19.49197,"lng":73.5348,"yearsExperience":4,"languages":["hi","en"],"available":true},{"id":"vet-mh67","type":"vet","name":"Dr. Rekha Patel","phone":"917387200654","email":"rekha.patel2@vetmail.in","qualification":"BVSc & AH","college":"DUVASU Mathura","licenseBody":"Veterinary Council of India","registrationNumber":"VCI/MH/2020/59053","village":"Devgarh","city":"Agra","district":"Patna","state":"Maharashtra","stateCode":"MH","lat":17.70659,"lng":73.84071,"yearsExperience":14,"languages":["hi"],"available":true},{"id":"vet-mh68","type":"vet","name":"Dr. Lakshmi Patel","phone":"916607876288","email":"lakshmi.patel36@vetmail.in","qualification":"BVSc & AH, MVSc","college":"AAU Anand","licenseBody":"Veterinary Council of India","registrationNumber":"VCI/MH/2019/83176","village":"Govindpur Kalan","city":"Bhopal","district":"Raipur Rural","state":"Maharashtra","stateCode":"MH","lat":19.0254,"lng":72.83322,"yearsExperience":7,"languages":["hi","en"],"available":false},{"id":"paravet-mh69","type":"paravet","name":"Dr. Manoj Rao","phone":"916894061436","email":"manoj.rao1@vetmail.in","qualification":"BVSc & AH (Paravet extension)","college":"Assam Agricultural University","licenseBody":"State Animal Husbandry Dept","registrationNumber":"PV/MH/2017/38309","village":"Nandgaon Kalan","city":"Meerut","district":"Agra","state":"Maharashtra","stateCode":"MH","lat":18.59878,"lng":73.27834,"yearsExperience":24,"languages":["hi"],"available":true},{"id":"vet-mh70","type":"vet","name":"Dr. Vijay Gupta","phone":"917335663205","email":"vijay.gupta59@vetmail.in","qualification":"BVSc & AH, MVSc","college":"Assam Agricultural University","licenseBody":"Veterinary Council of India","registrationNumber":"VCI/MH/2022/70042","village":"Patti","city":"Nagpur","district":"Ahmedabad Rural","state":"Maharashtra","stateCode":"MH","lat":18.68235,"lng":73.17627,"yearsExperience":19,"languages":["hi"],"available":false},{"id":"vet-mh71","type":"vet","name":"Dr. Mohan Kaur","phone":"919106065576","email":"mohan.kaur88@vetmail.in","qualification":"BVSc & AH","college":"GADVASU Ludhiana","licenseBody":"Veterinary Council of India","registrationNumber":"VCI/MH/2019/52957","village":"Kheri Kalan","city":"Mysuru","district":"Raipur","state":"Maharashtra","stateCode":"MH","lat":20.16192,"lng":74.01625,"yearsExperience":18,"languages":["hi","en"],"available":true},{"id":"paravet-mh72","type":"paravet","name":"Dr. Pradeep Choudhary","phone":"918540707617","email":"pradeep.choudhary66@vetmail.in","qualification":"Diploma in Animal Husbandry (DAH)","college":"KVK Extension","licenseBody":"State Animal Husbandry Dept","registrationNumber":"PV/MH/2020/27685","village":"Kalan Khurd","city":"Bhopal","district":"Lucknow","state":"Maharashtra","stateCode":"MH","lat":19.12366,"lng":74.50674,"yearsExperience":8,"languages":["hi"],"available":true},{"id":"paravet-mh73","type":"paravet","name":"Dr. Lakshmi Thakur","phone":"919704369043","email":"lakshmi.thakur68@vetmail.in","qualification":"NDDB AI Technician + Animal Health","college":"MAFSU Nagpur","licenseBody":"State Animal Husbandry Dept","registrationNumber":"PV/MH/2017/85909","village":"Nagar Nagar","city":"Bhopal","district":"Patna","state":"Maharashtra","stateCode":"MH","lat":17.47754,"lng":74.57712,"yearsExperience":2,"languages":["hi"],"available":true},{"id":"paravet-mh74","type":"paravet","name":"Dr. Ashok Kaur","phone":"916139966126","email":"ashok.kaur17@vetmail.in","qualification":"NDDB AI Technician + Animal Health","college":"GBPUAT Pantnagar","licenseBody":"State Animal Husbandry Dept","registrationNumber":"PV/MH/2021/18002","village":"Bharatpur","city":"Rajkot","district":"Amritsar District","state":"Maharashtra","stateCode":"MH","lat":19.18823,"lng":74.80891,"yearsExperience":6,"languages":["hi"],"available":true},{"id":"vet-mh75","type":"vet","name":"Dr. Sarita Mehta","phone":"916259554695","email":"sarita.mehta61@vetmail.in","qualification":"BVSc & AH","college":"Assam Agricultural University","licenseBody":"Veterinary Council of India","registrationNumber":"VCI/MH/2022/64548","village":null,"city":"Patna","district":"Indore","state":"Maharashtra","stateCode":"MH","lat":21.08708,"lng":74.50552,"yearsExperience":4,"languages":["hi","en"],"available":true},{"id":"paravet-mh76","type":"paravet","name":"Dr. Pooja Kumar","phone":"919659976363","email":"pooja.kumar57@vetmail.in","qualification":"BVSc & AH (Paravet extension)","college":"Kerala Veterinary University","licenseBody":"State Animal Husbandry Dept","registrationNumber":"PV/MH/2022/43215","village":"Sultanpur","city":"Kanpur","district":"Varanasi District","state":"Maharashtra","stateCode":"MH","lat":20.62643,"lng":73.21027,"yearsExperience":1,"languages":["hi"],"available":true},{"id":"vet-mh77","type":"vet","name":"Dr. Ravi Joshi","phone":"916137592942","email":"ravi.joshi67@vetmail.in","qualification":"BVSc & AH, MVSc (Surgery)","college":"TANUVAS Chennai","licenseBody":"Veterinary Council of India","registrationNumber":"VCI/MH/2010/50688","village":null,"city":"Guwahati","district":"Bhubaneswar Rural","state":"Maharashtra","stateCode":"MH","lat":17.04912,"lng":74.70375,"yearsExperience":13,"languages":["hi"],"available":true},{"id":"vet-mh78","type":"vet","name":"Dr. Sunita Choudhary","phone":"916013163173","email":"sunita.choudhary67@vetmail.in","qualification":"BVSc & AH, MVSc (Medicine)","college":"AAU Anand","licenseBody":"Veterinary Council of India","registrationNumber":"VCI/MH/2012/88784","village":null,"city":"Hubballi","district":"Surat District","state":"Maharashtra","stateCode":"MH","lat":17.83835,"lng":71.67841,"yearsExperience":20,"languages":["hi","en"],"available":true},{"id":"paravet-mh79","type":"paravet","name":"Kavita Kaur Devi","phone":"918828304896","email":"kavita.kaur27@vetmail.in","qualification":"BVSc & AH (Paravet extension)","college":"GBPUAT Pantnagar","licenseBody":"State Animal Husbandry Dept","registrationNumber":"PV/MH/2020/33339","village":"Govindpur Khurd","city":"Jaipur","district":"Varanasi Rural","state":"Maharashtra","stateCode":"MH","lat":17.5456,"lng":74.78158,"yearsExperience":11,"languages":["hi"],"available":true},{"id":"paravet-mh80","type":"paravet","name":"Dr. Arun Mishra","phone":"918997069201","email":"arun.mishra67@vetmail.in","qualification":"Diploma in Animal Husbandry (DAH)","college":"AAU Anand","licenseBody":"State Animal Husbandry Dept","registrationNumber":"PV/MH/2018/10677","village":"Kishanpur Khurd","city":"Ranchi","district":"Kanpur District","state":"Maharashtra","stateCode":"MH","lat":18.9716,"lng":72.95489,"yearsExperience":17,"languages":["hi","en"],"available":true},{"id":"paravet-mh81","type":"paravet","name":"Dr. Geeta Nair","phone":"919595985127","email":"geeta.nair0@vetmail.in","qualification":"NDDB AI Technician + Animal Health","college":"GADVASU Ludhiana","licenseBody":"State Animal Husbandry Dept","registrationNumber":"PV/MH/2010/71385","village":"Kalan Kalan","city":"Ahmedabad","district":"Rajkot Rural","state":"Maharashtra","stateCode":"MH","lat":17.212,"lng":72.56606,"yearsExperience":12,"languages":["hi"],"available":true},{"id":"paravet-mh82","type":"paravet","name":"Dr. Anita Kaur","phone":"916202497447","email":"anita.kaur10@vetmail.in","qualification":"NDDB AI Technician + Animal Health","college":"Rajasthan University of Veterinary Sciences","licenseBody":"State Animal Husbandry Dept","registrationNumber":"PV/MH/2022/90169","village":null,"city":"Patna","district":"Kanpur District","state":"Maharashtra","stateCode":"MH","lat":18.94805,"lng":73.67571,"yearsExperience":18,"languages":["hi"],"available":true},{"id":"vet-mh83","type":"vet","name":"Dr. Suresh Reddy","phone":"918040739410","email":"suresh.reddy98@vetmail.in","qualification":"BVSc & AH, MVSc (Surgery)","college":"Rajasthan University of Veterinary Sciences","licenseBody":"Veterinary Council of India","registrationNumber":"VCI/MH/2015/93665","village":"Krishnapur Kalan","city":"Bhubaneswar","district":"Bhopal","state":"Maharashtra","stateCode":"MH","lat":21.02293,"lng":74.95558,"yearsExperience":18,"languages":["hi"],"available":true},{"id":"paravet-mh84","type":"paravet","name":"Dr. Mohan Kumar","phone":"917823212807","email":"mohan.kumar10@vetmail.in","qualification":"Certificate in Livestock Health Worker (LHW)","college":"Rajasthan University of Veterinary Sciences","licenseBody":"State Animal Husbandry Dept","registrationNumber":"PV/MH/2019/89110","village":null,"city":"Ludhiana","district":"Kanpur","state":"Maharashtra","stateCode":"MH","lat":20.24841,"lng":71.00742,"yearsExperience":24,"languages":["hi"],"available":true},{"id":"vet-mh85","type":"vet","name":"Dr. Vijay Devi","phone":"918348596041","email":"vijay.devi22@vetmail.in","qualification":"BVSc & AH, MVSc","college":"Kerala Veterinary University","licenseBody":"Veterinary Council of India","registrationNumber":"VCI/MH/2015/33915","village":null,"city":"Guwahati","district":"Jaipur","state":"Maharashtra","stateCode":"MH","lat":19.31125,"lng":71.01447,"yearsExperience":11,"languages":["hi","en"],"available":true},{"id":"vet-mh86","type":"vet","name":"Dr. Ashok Mehta","phone":"916309979541","email":"ashok.mehta4@vetmail.in","qualification":"BVSc & AH","college":"Assam Agricultural University","licenseBody":"Veterinary Council of India","registrationNumber":"VCI/MH/2018/29971","village":"Sonpur","city":"Ahmedabad","district":"Kanpur Rural","state":"Maharashtra","stateCode":"MH","lat":20.27109,"lng":71.30001,"yearsExperience":24,"languages":["hi"],"available":true},{"id":"paravet-mh87","type":"paravet","name":"Dr. Pooja Singh","phone":"916736485693","email":"pooja.singh44@vetmail.in","qualification":"Certificate in Livestock Health Worker (LHW)","college":"GADVASU Ludhiana","licenseBody":"State Animal Husbandry Dept","registrationNumber":"PV/MH/2023/73255","village":null,"city":"Rajkot","district":"Coimbatore District","state":"Maharashtra","stateCode":"MH","lat":19.14378,"lng":71.30912,"yearsExperience":28,"languages":["hi"],"available":true},{"id":"vet-mh88","type":"vet","name":"Dr. Sunil Choudhary","phone":"918397844610","email":"sunil.choudhary7@vetmail.in","qualification":"BVSc & AH, MVSc (Surgery)","college":"MAFSU Nagpur","licenseBody":"Veterinary Council of India","registrationNumber":"VCI/MH/2011/35191","village":null,"city":"Indore","district":"Madurai District","state":"Maharashtra","stateCode":"MH","lat":20.46763,"lng":71.54639,"yearsExperience":10,"languages":["hi","en"],"available":true},{"id":"paravet-mh89","type":"paravet","name":"Dr. Ravi Patel","phone":"916481008583","email":"ravi.patel70@vetmail.in","qualification":"Certificate in Livestock Health Worker (LHW)","college":"KVK Extension","licenseBody":"State Animal Husbandry Dept","registrationNumber":"PV/MH/2018/72743","village":null,"city":"Agra","district":"Rajkot Rural","state":"Maharashtra","stateCode":"MH","lat":17.73148,"lng":74.37513,"yearsExperience":5,"languages":["hi","en"],"available":true},{"id":"vet-mh90","type":"vet","name":"Deepak Verma Devi","phone":"916660160847","email":"deepak.verma25@vetmail.in","qualification":"BVSc & AH, MVSc (Surgery)","college":"LUVAS Hisar","licenseBody":"Veterinary Council of India","registrationNumber":"VCI/MH/2015/86257","village":null,"city":"Varanasi","district":"Kanpur","state":"Maharashtra","stateCode":"MH","lat":19.14095,"lng":71.93827,"yearsExperience":19,"languages":["hi","en"],"available":false},{"id":"paravet-mh91","type":"paravet","name":"Dr. Manoj Patel","phone":"919591421659","email":"manoj.patel11@vetmail.in","qualification":"Certificate in Livestock Health Worker (LHW)","college":"Kerala Veterinary University","licenseBody":"State Animal Husbandry Dept","registrationNumber":"PV/MH/2019/76596","village":"Kheri Khurd","city":"Mysuru","district":"Bhopal","state":"Maharashtra","stateCode":"MH","lat":20.86173,"lng":71.007,"yearsExperience":3,"languages":["hi","en"],"available":true},{"id":"paravet-mh92","type":"paravet","name":"Dr. Anita Verma","phone":"917598884827","email":"anita.verma76@vetmail.in","qualification":"Diploma in Animal Husbandry (DAH)","college":"KVK Extension","licenseBody":"State Animal Husbandry Dept","registrationNumber":"PV/MH/2013/64392","village":null,"city":"Nagpur","district":"Ludhiana","state":"Maharashtra","stateCode":"MH","lat":20.73956,"lng":74.95793,"yearsExperience":2,"languages":["hi","en"],"available":true},{"id":"paravet-mh93","type":"paravet","name":"Dr. Manoj Das","phone":"919078169317","email":"manoj.das39@vetmail.in","qualification":"BVSc & AH (Paravet extension)","college":"Kerala Veterinary University","licenseBody":"State Animal Husbandry Dept","registrationNumber":"PV/MH/2017/50013","village":null,"city":"Kanpur","district":"Raipur","state":"Maharashtra","stateCode":"MH","lat":17.54754,"lng":72.31307,"yearsExperience":25,"languages":["hi"],"available":true},{"id":"paravet-mh94","type":"paravet","name":"Manoj Devi Devi","phone":"918873902502","email":"manoj.devi49@vetmail.in","qualification":"Certificate in Livestock Health Worker (LHW)","college":"OUAT Bhubaneswar","licenseBody":"State Animal Husbandry Dept","registrationNumber":"PV/MH/2023/22610","village":"Sonpur","city":"Surat","district":"Indore District","state":"Maharashtra","stateCode":"MH","lat":17.9689,"lng":70.7459,"yearsExperience":16,"languages":["hi","en"],"available":true},{"id":"vet-mh95","type":"vet","name":"Dr. Anita Kumar","phone":"916361609719","email":"anita.kumar42@vetmail.in","qualification":"BVSc & AH, MVSc (Medicine)","college":"LUVAS Hisar","licenseBody":"Veterinary Council of India","registrationNumber":"VCI/MH/2018/50445","village":"Gangapur Nagar","city":"Meerut","district":"Nagpur","state":"Maharashtra","stateCode":"MH","lat":17.04775,"lng":72.09595,"yearsExperience":21,"languages":["hi"],"available":true},{"id":"paravet-mh96","type":"paravet","name":"Dr. Sunita Saini","phone":"919268892304","email":"sunita.saini52@vetmail.in","qualification":"Diploma in Animal Husbandry (DAH)","college":"Assam Agricultural University","licenseBody":"State Animal Husbandry Dept","registrationNumber":"PV/MH/2017/80853","village":"Shivpuri Kalan","city":"Hubballi","district":"Raipur Rural","state":"Maharashtra","stateCode":"MH","lat":20.50876,"lng":72.28652,"yearsExperience":17,"languages":["hi","en"],"available":false},{"id":"paravet-mh97","type":"paravet","name":"Sunita Das Devi","phone":"918480134157","email":"sunita.das8@vetmail.in","qualification":"Certificate in Livestock Health Worker (LHW)","college":"Assam Agricultural University","licenseBody":"State Animal Husbandry Dept","registrationNumber":"PV/MH/2018/36468","village":null,"city":"Ahmedabad","district":"Guwahati","state":"Maharashtra","stateCode":"MH","lat":18.9064,"lng":74.4357,"yearsExperience":5,"languages":["hi","en"],"available":true},{"id":"paravet-mh98","type":"paravet","name":"Dr. Anita Patel","phone":"917458579168","email":"anita.patel79@vetmail.in","qualification":"Diploma in Animal Husbandry (DAH)","college":"Rajasthan University of Veterinary Sciences","licenseBody":"State Animal Husbandry Dept","registrationNumber":"PV/MH/2021/45591","village":null,"city":"Agra","district":"Hubballi Rural","state":"Maharashtra","stateCode":"MH","lat":17.80164,"lng":73.99671,"yearsExperience":9,"languages":["hi"],"available":true},{"id":"vet-mh99","type":"vet","name":"Dr. Manoj Nair","phone":"916864347653","email":"manoj.nair80@vetmail.in","qualification":"BVSc & AH, MVSc (Medicine)","college":"IVRI Bareilly","licenseBody":"Veterinary Council of India","registrationNumber":"VCI/MH/2015/16116","village":"Bharatpur Nagar","city":"Ahmedabad","district":"Ludhiana","state":"Maharashtra","stateCode":"MH","lat":20.48332,"lng":70.92604,"yearsExperience":16,"languages":["hi"],"available":true},{"id":"paravet-mh100","type":"paravet","name":"Dr. Geeta Verma","phone":"918914148210","email":"geeta.verma29@vetmail.in","qualification":"Certificate in Livestock Health Worker (LHW)","college":"DUVASU Mathura","licenseBody":"State Animal Husbandry Dept","registrationNumber":"PV/MH/2018/51383","village":"Bharatpur Nagar","city":"Nagpur","district":"Kanpur Rural","state":"Maharashtra","stateCode":"MH","lat":20.60657,"lng":73.48498,"yearsExperience":10,"languages":["hi"],"available":true},{"id":"paravet-mh101","type":"paravet","name":"Dr. Deepak Nair","phone":"918616239120","email":"deepak.nair24@vetmail.in","qualification":"Diploma in Animal Husbandry (DAH)","college":"Bihar Veterinary College","licenseBody":"State Animal Husbandry Dept","registrationNumber":"PV/MH/2015/65904","village":null,"city":"Raipur","district":"Agra Rural","state":"Maharashtra","stateCode":"MH","lat":20.15236,"lng":73.77537,"yearsExperience":20,"languages":["hi","en"],"available":true},{"id":"paravet-mh102","type":"paravet","name":"Dr. Kavita Mishra","phone":"918436665636","email":"kavita.mishra96@vetmail.in","qualification":"Diploma in Animal Husbandry (DAH)","college":"IVRI Bareilly","licenseBody":"State Animal Husbandry Dept","registrationNumber":"PV/MH/2016/32092","village":null,"city":"Pune","district":"Mysuru District","state":"Maharashtra","stateCode":"MH","lat":16.95746,"lng":75.07641,"yearsExperience":19,"languages":["hi","en"],"available":true},{"id":"vet-mh103","type":"vet","name":"Dr. Sunita Gupta","phone":"917725055222","email":"sunita.gupta6@vetmail.in","qualification":"BVSc & AH, MVSc (Medicine)","college":"Rajasthan University of Veterinary Sciences","licenseBody":"Veterinary Council of India","registrationNumber":"VCI/MH/2019/94076","village":null,"city":"Nagpur","district":"Meerut District","state":"Maharashtra","stateCode":"MH","lat":19.16135,"lng":74.88668,"yearsExperience":19,"languages":["hi","en"],"available":true},{"id":"paravet-mh104","type":"paravet","name":"Dr. Neha Rao","phone":"919290809252","email":"neha.rao59@vetmail.in","qualification":"Certificate in Livestock Health Worker (LHW)","college":"Kerala Veterinary University","licenseBody":"State Animal Husbandry Dept","registrationNumber":"PV/MH/2023/60739","village":"Nagar Kalan","city":"Pune","district":"Ludhiana District","state":"Maharashtra","stateCode":"MH","lat":20.25315,"lng":71.9097,"yearsExperience":1,"languages":["hi","en"],"available":false},{"id":"vet-mh105","type":"vet","name":"Dr. Deepak Kumar","phone":"916129011751","email":"deepak.kumar11@vetmail.in","qualification":"BVSc & AH, MVSc (Medicine)","college":"TANUVAS Chennai","licenseBody":"Veterinary Council of India","registrationNumber":"VCI/MH/2016/95648","village":"Kishanpur","city":"Surat","district":"Agra District","state":"Maharashtra","stateCode":"MH","lat":18.29459,"lng":73.86798,"yearsExperience":26,"languages":["hi","en"],"available":true},{"id":"paravet-mh106","type":"paravet","name":"Dr. Vijay Kumar","phone":"916485093372","email":"vijay.kumar26@vetmail.in","qualification":"BVSc & AH (Paravet extension)","college":"Assam Agricultural University","licenseBody":"State Animal Husbandry Dept","registrationNumber":"PV/MH/2020/95217","village":null,"city":"Rajkot","district":"Ranchi Rural","state":"Maharashtra","stateCode":"MH","lat":20.27993,"lng":72.29735,"yearsExperience":14,"languages":["hi"],"available":true},{"id":"vet-mh107","type":"vet","name":"Sunil Kaur Devi","phone":"919994056701","email":"sunil.kaur81@vetmail.in","qualification":"BVSc & AH, MVSc","college":"DUVASU Mathura","licenseBody":"Veterinary Council of India","registrationNumber":"VCI/MH/2021/26874","village":"Kishanpur Kalan","city":"Ahmedabad","district":"Hubballi","state":"Maharashtra","stateCode":"MH","lat":20.19555,"lng":74.12372,"yearsExperience":26,"languages":["hi","en"],"available":true},{"id":"paravet-mh108","type":"paravet","name":"Dr. Mohan Reddy","phone":"919112402453","email":"mohan.reddy8@vetmail.in","qualification":"Certificate in Livestock Health Worker (LHW)","college":"MAFSU Nagpur","licenseBody":"State Animal Husbandry Dept","registrationNumber":"PV/MH/2017/98115","village":null,"city":"Ranchi","district":"Hubballi Rural","state":"Maharashtra","stateCode":"MH","lat":18.91254,"lng":72.37515,"yearsExperience":26,"languages":["hi"],"available":true},{"id":"paravet-mh109","type":"paravet","name":"Dr. Mohan Singh","phone":"919809996230","email":"mohan.singh12@vetmail.in","qualification":"NDDB AI Technician + Animal Health","college":"LUVAS Hisar","licenseBody":"State Animal Husbandry Dept","registrationNumber":"PV/MH/2021/68405","village":"Khurd Kalan","city":"Patna","district":"Mysuru Rural","state":"Maharashtra","stateCode":"MH","lat":17.86098,"lng":73.56368,"yearsExperience":17,"languages":["hi"],"available":true},{"id":"paravet-mh110","type":"paravet","name":"Dr. Sanjay Verma","phone":"918778680104","email":"sanjay.verma40@vetmail.in","qualification":"Certificate in Livestock Health Worker (LHW)","college":"MAFSU Nagpur","licenseBody":"State Animal Husbandry Dept","registrationNumber":"PV/MH/2017/33841","village":"Nagar Khurd","city":"Agra","district":"Surat Rural","state":"Maharashtra","stateCode":"MH","lat":19.21486,"lng":74.20489,"yearsExperience":24,"languages":["hi","en"],"available":true},{"id":"paravet-mh111","type":"paravet","name":"Dr. Suresh Gupta","phone":"918874811217","email":"suresh.gupta59@vetmail.in","qualification":"Diploma in Animal Husbandry (DAH)","college":"AAU Anand","licenseBody":"State Animal Husbandry Dept","registrationNumber":"PV/MH/2016/86678","village":null,"city":"Jaipur","district":"Bhubaneswar District","state":"Maharashtra","stateCode":"MH","lat":21.14971,"lng":73.75185,"yearsExperience":26,"languages":["hi","en"],"available":false},{"id":"vet-mh112","type":"vet","name":"Deepak Verma Devi","phone":"918072829158","email":"deepak.verma56@vetmail.in","qualification":"BVSc & AH, MVSc","college":"KVAFSU Bidar","licenseBody":"Veterinary Council of India","registrationNumber":"VCI/MH/2017/61018","village":null,"city":"Agra","district":"Kanpur Rural","state":"Maharashtra","stateCode":"MH","lat":17.31035,"lng":71.8171,"yearsExperience":5,"languages":["hi"],"available":true},{"id":"paravet-mh113","type":"paravet","name":"Dr. Manoj Devi","phone":"916079760180","email":"manoj.devi64@vetmail.in","qualification":"NDDB AI Technician + Animal Health","college":"WBUAFS Kolkata","licenseBody":"State Animal Husbandry Dept","registrationNumber":"PV/MH/2017/26670","village":null,"city":"Ranchi","district":"Hubballi","state":"Maharashtra","stateCode":"MH","lat":19.59311,"lng":73.27367,"yearsExperience":2,"languages":["hi","en"],"available":false},{"id":"vet-mh114","type":"vet","name":"Dr. Pradeep Saini","phone":"919190867229","email":"pradeep.saini92@vetmail.in","qualification":"BVSc & AH, MVSc","college":"IVRI Bareilly","licenseBody":"Veterinary Council of India","registrationNumber":"VCI/MH/2013/73662","village":"Gangapur Nagar","city":"Hubballi","district":"Rajkot","state":"Maharashtra","stateCode":"MH","lat":16.95737,"lng":71.1925,"yearsExperience":19,"languages":["hi","en"],"available":true},{"id":"vet-mh115","type":"vet","name":"Dr. Sunita Choudhary","phone":"917070864362","email":"sunita.choudhary11@vetmail.in","qualification":"BVSc & AH, MVSc (Surgery)","college":"Rajasthan University of Veterinary Sciences","licenseBody":"Veterinary Council of India","registrationNumber":"VCI/MH/2018/75011","village":null,"city":"Coimbatore","district":"Surat District","state":"Maharashtra","stateCode":"MH","lat":18.42796,"lng":70.91536,"yearsExperience":22,"languages":["hi","en"],"available":true},{"id":"paravet-mh116","type":"paravet","name":"Dr. Mohan Mehta","phone":"917892407459","email":"mohan.mehta15@vetmail.in","qualification":"NDDB AI Technician + Animal Health","college":"Kerala Veterinary University","licenseBody":"State Animal Husbandry Dept","registrationNumber":"PV/MH/2020/10217","village":"Patti Nagar","city":"Nagpur","district":"Varanasi Rural","state":"Maharashtra","stateCode":"MH","lat":20.99058,"lng":71.93737,"yearsExperience":7,"languages":["hi","en"],"available":false},{"id":"paravet-mh117","type":"paravet","name":"Suman Pandey Devi","phone":"918982329552","email":"suman.pandey17@vetmail.in","qualification":"Certificate in Livestock Health Worker (LHW)","college":"LUVAS Hisar","licenseBody":"State Animal Husbandry Dept","registrationNumber":"PV/MH/2013/93804","village":null,"city":"Madurai","district":"Nagpur Rural","state":"Maharashtra","stateCode":"MH","lat":17.39877,"lng":73.10587,"yearsExperience":9,"languages":["hi"],"available":true},{"id":"vet-mh118","type":"vet","name":"Dr. Gopal Nair","phone":"918570754945","email":"gopal.nair66@vetmail.in","qualification":"BVSc & AH","college":"AAU Anand","licenseBody":"Veterinary Council of India","registrationNumber":"VCI/MH/2023/60492","village":"Basantpur Nagar","city":"Madurai","district":"Surat District","state":"Maharashtra","stateCode":"MH","lat":19.04965,"lng":74.02739,"yearsExperience":9,"languages":["hi"],"available":true},{"id":"vet-mh119","type":"vet","name":"Priya Singh Devi","phone":"917590186705","email":"priya.singh71@vetmail.in","qualification":"BVSc & AH","college":"Kerala Veterinary University","licenseBody":"Veterinary Council of India","registrationNumber":"VCI/MH/2014/58684","village":"Mohanpur Kalan","city":"Agra","district":"Ranchi Rural","state":"Maharashtra","stateCode":"MH","lat":19.53502,"lng":72.68737,"yearsExperience":28,"languages":["hi"],"available":true},{"id":"paravet-mh120","type":"paravet","name":"Dr. Rekha Yadav","phone":"917944452688","email":"rekha.yadav27@vetmail.in","qualification":"BVSc & AH (Paravet extension)","college":"OUAT Bhubaneswar","licenseBody":"State Animal Husbandry Dept","registrationNumber":"PV/MH/2021/24549","village":"Bharatpur Kalan","city":"Coimbatore","district":"Kanpur","state":"Maharashtra","stateCode":"MH","lat":18.04997,"lng":74.4193,"yearsExperience":2,"languages":["hi"],"available":true},{"id":"vet-mh121","type":"vet","name":"Dr. Sarita Sharma","phone":"918751996397","email":"sarita.sharma1@vetmail.in","qualification":"BVSc & AH, MVSc (Medicine)","college":"Assam Agricultural University","licenseBody":"Veterinary Council of India","registrationNumber":"VCI/MH/2017/83531","village":"Krishnapur Nagar","city":"Guwahati","district":"Mysuru Rural","state":"Maharashtra","stateCode":"MH","lat":19.65869,"lng":75.12058,"yearsExperience":6,"languages":["hi","en"],"available":true},{"id":"paravet-mh122","type":"paravet","name":"Dr. Radha Kaur","phone":"916356863789","email":"radha.kaur80@vetmail.in","qualification":"NDDB AI Technician + Animal Health","college":"OUAT Bhubaneswar","licenseBody":"State Animal Husbandry Dept","registrationNumber":"PV/MH/2012/91956","village":"Govindpur Kalan","city":"Bhubaneswar","district":"Rajkot District","state":"Maharashtra","stateCode":"MH","lat":18.16367,"lng":73.7652,"yearsExperience":4,"languages":["hi","en"],"available":true},{"id":"vet-mh123","type":"vet","name":"Dr. Manoj Verma","phone":"919579514699","email":"manoj.verma46@vetmail.in","qualification":"BVSc & AH, MVSc","college":"LUVAS Hisar","licenseBody":"Veterinary Council of India","registrationNumber":"VCI/MH/2021/68223","village":null,"city":"Rajkot","district":"Ludhiana Rural","state":"Maharashtra","stateCode":"MH","lat":20.11902,"lng":74.16142,"yearsExperience":17,"languages":["hi","en"],"available":true},{"id":"vet-mh124","type":"vet","name":"Dr. Dinesh Thakur","phone":"918464949546","email":"dinesh.thakur52@vetmail.in","qualification":"BVSc & AH, MVSc","college":"Bihar Veterinary College","licenseBody":"Veterinary Council of India","registrationNumber":"VCI/MH/2021/50666","village":"Kishanpur Khurd","city":"Agra","district":"Rajkot Rural","state":"Maharashtra","stateCode":"MH","lat":18.62382,"lng":71.65768,"yearsExperience":9,"languages":["hi","en"],"available":true},{"id":"vet-mh125","type":"vet","name":"Dr. Ravi Verma","phone":"919417501558","email":"ravi.verma12@vetmail.in","qualification":"BVSc & AH, MVSc","college":"Rajasthan University of Veterinary Sciences","licenseBody":"Veterinary Council of India","registrationNumber":"VCI/MH/2011/70115","village":null,"city":"Amritsar","district":"Pune District","state":"Maharashtra","stateCode":"MH","lat":21.07013,"lng":70.65722,"yearsExperience":19,"languages":["hi","en"],"available":true},{"id":"vet-mh126","type":"vet","name":"Dr. Harish Mishra","phone":"918140917135","email":"harish.mishra24@vetmail.in","qualification":"BVSc & AH","college":"GADVASU Ludhiana","licenseBody":"Veterinary Council of India","registrationNumber":"VCI/MH/2019/55508","village":null,"city":"Guwahati","district":"Bhubaneswar","state":"Maharashtra","stateCode":"MH","lat":20.50118,"lng":71.14633,"yearsExperience":14,"languages":["hi"],"available":true},{"id":"vet-mh127","type":"vet","name":"Dr. Pradeep Mehta","phone":"918547770813","email":"pradeep.mehta47@vetmail.in","qualification":"BVSc & AH, MVSc (Surgery)","college":"AAU Anand","licenseBody":"Veterinary Council of India","registrationNumber":"VCI/MH/2012/39424","village":"Nandgaon Nagar","city":"Coimbatore","district":"Ludhiana District","state":"Maharashtra","stateCode":"MH","lat":20.58722,"lng":72.11271,"yearsExperience":7,"languages":["hi","en"],"available":true},{"id":"vet-mh128","type":"vet","name":"Dr. Anita Kaur","phone":"918777302738","email":"anita.kaur17@vetmail.in","qualification":"BVSc & AH, MVSc (Surgery)","college":"LUVAS Hisar","licenseBody":"Veterinary Council of India","registrationNumber":"VCI/MH/2011/54524","village":null,"city":"Ludhiana","district":"Madurai District","state":"Maharashtra","stateCode":"MH","lat":19.77898,"lng":71.14188,"yearsExperience":16,"languages":["hi"],"available":true},{"id":"vet-mh129","type":"vet","name":"Dr. Rajesh Nair","phone":"919253823473","email":"rajesh.nair13@vetmail.in","qualification":"BVSc & AH","college":"Kerala Veterinary University","licenseBody":"Veterinary Council of India","registrationNumber":"VCI/MH/2018/57441","village":"Lakhanpur Kalan","city":"Pune","district":"Varanasi District","state":"Maharashtra","stateCode":"MH","lat":18.12333,"lng":75.01246,"yearsExperience":11,"languages":["hi","en"],"available":false},{"id":"vet-mh130","type":"vet","name":"Dr. Ravi Saini","phone":"917357024278","email":"ravi.saini0@vetmail.in","qualification":"BVSc & AH, MVSc (Medicine)","college":"AAU Anand","licenseBody":"Veterinary Council of India","registrationNumber":"VCI/MH/2019/62877","village":null,"city":"Hubballi","district":"Bhubaneswar","state":"Maharashtra","stateCode":"MH","lat":19.44332,"lng":74.08401,"yearsExperience":24,"languages":["hi","en"],"available":true},{"id":"vet-mh131","type":"vet","name":"Dr. Manoj Verma","phone":"917659393850","email":"manoj.verma17@vetmail.in","qualification":"BVSc & AH, MVSc","college":"KVAFSU Bidar","licenseBody":"Veterinary Council of India","registrationNumber":"VCI/MH/2020/80201","village":"Lakhanpur","city":"Lucknow","district":"Rajkot Rural","state":"Maharashtra","stateCode":"MH","lat":19.52768,"lng":72.5044,"yearsExperience":27,"languages":["hi","en"],"available":true},{"id":"vet-mh132","type":"vet","name":"Dr. Sunita Pandey","phone":"916266853799","email":"sunita.pandey45@vetmail.in","qualification":"BVSc & AH, MVSc (Surgery)","college":"MAFSU Nagpur","licenseBody":"Veterinary Council of India","registrationNumber":"VCI/MH/2023/23305","village":"Lakhanpur Khurd","city":"Agra","district":"Coimbatore District","state":"Maharashtra","stateCode":"MH","lat":17.86703,"lng":72.90369,"yearsExperience":14,"languages":["hi","en"],"available":true},{"id":"paravet-mh133","type":"paravet","name":"Dr. Sanjay Singh","phone":"917451000032","email":"sanjay.singh94@vetmail.in","qualification":"Diploma in Animal Husbandry (DAH)","college":"IVRI Bareilly","licenseBody":"State Animal Husbandry Dept","registrationNumber":"PV/MH/2015/68884","village":"Basantpur Khurd","city":"Bhubaneswar","district":"Varanasi","state":"Maharashtra","stateCode":"MH","lat":17.73286,"lng":74.86707,"yearsExperience":12,"languages":["hi","en"],"available":true},{"id":"paravet-mh134","type":"paravet","name":"Vinod Thakur Devi","phone":"916224804351","email":"vinod.thakur92@vetmail.in","qualification":"BVSc & AH (Paravet extension)","college":"Bihar Veterinary College","licenseBody":"State Animal Husbandry Dept","registrationNumber":"PV/MH/2011/65630","village":null,"city":"Ranchi","district":"Agra District","state":"Maharashtra","stateCode":"MH","lat":19.95857,"lng":71.59628,"yearsExperience":18,"languages":["hi","en"],"available":true},{"id":"vet-mh135","type":"vet","name":"Dr. Meena Thakur","phone":"917245424337","email":"meena.thakur39@vetmail.in","qualification":"BVSc & AH, MVSc","college":"TANUVAS Chennai","licenseBody":"Veterinary Council of India","registrationNumber":"VCI/MH/2023/80845","village":null,"city":"Ranchi","district":"Ludhiana","state":"Maharashtra","stateCode":"MH","lat":19.5794,"lng":74.79092,"yearsExperience":13,"languages":["hi","en"],"available":true},{"id":"paravet-mh136","type":"paravet","name":"Dr. Vinod Nair","phone":"916894488722","email":"vinod.nair6@vetmail.in","qualification":"Certificate in Livestock Health Worker (LHW)","college":"Assam Agricultural University","licenseBody":"State Animal Husbandry Dept","registrationNumber":"PV/MH/2011/19489","village":null,"city":"Kanpur","district":"Indore Rural","state":"Maharashtra","stateCode":"MH","lat":20.86945,"lng":71.67473,"yearsExperience":23,"languages":["hi","en"],"available":true},{"id":"paravet-mh137","type":"paravet","name":"Dr. Manoj Mehta","phone":"919547483116","email":"manoj.mehta89@vetmail.in","qualification":"BVSc & AH (Paravet extension)","college":"GADVASU Ludhiana","licenseBody":"State Animal Husbandry Dept","registrationNumber":"PV/MH/2020/30476","village":"Khurd","city":"Amritsar","district":"Hubballi","state":"Maharashtra","stateCode":"MH","lat":18.05883,"lng":75.09955,"yearsExperience":5,"languages":["hi"],"available":false},{"id":"paravet-mh138","type":"paravet","name":"Dr. Manoj Verma","phone":"918542831512","email":"manoj.verma38@vetmail.in","qualification":"Diploma in Animal Husbandry (DAH)","college":"KVK Extension","licenseBody":"State Animal Husbandry Dept","registrationNumber":"PV/MH/2012/96975","village":null,"city":"Ranchi","district":"Jaipur District","state":"Maharashtra","stateCode":"MH","lat":17.99162,"lng":73.22327,"yearsExperience":18,"languages":["hi","en"],"available":true},{"id":"vet-mh139","type":"vet","name":"Dr. Anita Sharma","phone":"917725530066","email":"anita.sharma62@vetmail.in","qualification":"BVSc & AH, MVSc (Medicine)","college":"DUVASU Mathura","licenseBody":"Veterinary Council of India","registrationNumber":"VCI/MH/2011/12080","village":null,"city":"Meerut","district":"Indore","state":"Maharashtra","stateCode":"MH","lat":17.33734,"lng":71.42368,"yearsExperience":28,"languages":["hi","en"],"available":false},{"id":"paravet-mh140","type":"paravet","name":"Dr. Vinod Kaur","phone":"919082727193","email":"vinod.kaur76@vetmail.in","qualification":"Certificate in Livestock Health Worker (LHW)","college":"Bihar Veterinary College","licenseBody":"State Animal Husbandry Dept","registrationNumber":"PV/MH/2016/15359","village":"Kheri Kalan","city":"Bhubaneswar","district":"Mysuru","state":"Maharashtra","stateCode":"MH","lat":18.38019,"lng":72.9926,"yearsExperience":28,"languages":["hi","en"],"available":true},{"id":"paravet-mh141","type":"paravet","name":"Dr. Lakshmi Rao","phone":"917902655075","email":"lakshmi.rao4@vetmail.in","qualification":"Diploma in Animal Husbandry (DAH)","college":"State AH Department Training","licenseBody":"State Animal Husbandry Dept","registrationNumber":"PV/MH/2021/19063","village":"Lakhanpur Nagar","city":"Surat","district":"Rajkot Rural","state":"Maharashtra","stateCode":"MH","lat":20.12629,"lng":73.62045,"yearsExperience":11,"languages":["hi"],"available":true},{"id":"paravet-mh142","type":"paravet","name":"Radha Devi Devi","phone":"918487837572","email":"radha.devi37@vetmail.in","qualification":"Certificate in Livestock Health Worker (LHW)","college":"Assam Agricultural University","licenseBody":"State Animal Husbandry Dept","registrationNumber":"PV/MH/2023/38254","village":"Kalan Nagar","city":"Indore","district":"Hubballi District","state":"Maharashtra","stateCode":"MH","lat":18.68197,"lng":72.72536,"yearsExperience":6,"languages":["hi","en"],"available":true},{"id":"vet-mh143","type":"vet","name":"Dr. Meena Mehta","phone":"916494472057","email":"meena.mehta73@vetmail.in","qualification":"BVSc & AH, MVSc","college":"TANUVAS Chennai","licenseBody":"Veterinary Council of India","registrationNumber":"VCI/MH/2015/84199","village":"Nandgaon Nagar","city":"Guwahati","district":"Lucknow Rural","state":"Maharashtra","stateCode":"MH","lat":17.56351,"lng":71.97614,"yearsExperience":28,"languages":["hi","en"],"available":true},{"id":"paravet-mh144","type":"paravet","name":"Dr. Geeta Yadav","phone":"916717798764","email":"geeta.yadav98@vetmail.in","qualification":"BVSc & AH (Paravet extension)","college":"Bihar Veterinary College","licenseBody":"State Animal Husbandry Dept","registrationNumber":"PV/MH/2020/51248","village":"Krishnapur Nagar","city":"Jaipur","district":"Raipur District","state":"Maharashtra","stateCode":"MH","lat":18.13962,"lng":74.05841,"yearsExperience":13,"languages":["hi"],"available":true},{"id":"vet-mh145","type":"vet","name":"Gopal Pandey Devi","phone":"918711697784","email":"gopal.pandey53@vetmail.in","qualification":"BVSc & AH, MVSc","college":"LUVAS Hisar","licenseBody":"Veterinary Council of India","registrationNumber":"VCI/MH/2013/54346","village":"Patti","city":"Coimbatore","district":"Hubballi Rural","state":"Maharashtra","stateCode":"MH","lat":21.27101,"lng":74.82977,"yearsExperience":25,"languages":["hi"],"available":true},{"id":"paravet-mh146","type":"paravet","name":"Dr. Lakshmi Saini","phone":"916863505014","email":"lakshmi.saini70@vetmail.in","qualification":"Diploma in Animal Husbandry (DAH)","college":"GBPUAT Pantnagar","licenseBody":"State Animal Husbandry Dept","registrationNumber":"PV/MH/2021/17788","village":"Krishnapur","city":"Bhopal","district":"Rajkot District","state":"Maharashtra","stateCode":"MH","lat":18.63062,"lng":71.78811,"yearsExperience":26,"languages":["hi","en"],"available":true},{"id":"paravet-mh147","type":"paravet","name":"Dr. Dinesh Choudhary","phone":"919399425957","email":"dinesh.choudhary86@vetmail.in","qualification":"Certificate in Livestock Health Worker (LHW)","college":"MAFSU Nagpur","licenseBody":"State Animal Husbandry Dept","registrationNumber":"PV/MH/2022/52119","village":null,"city":"Bhopal","district":"Ahmedabad Rural","state":"Maharashtra","stateCode":"MH","lat":18.48401,"lng":71.54732,"yearsExperience":10,"languages":["hi","en"],"available":true},{"id":"vet-mh148","type":"vet","name":"Dr. Suman Choudhary","phone":"916916746871","email":"suman.choudhary66@vetmail.in","qualification":"BVSc & AH, MVSc (Surgery)","college":"Kerala Veterinary University","licenseBody":"Veterinary Council of India","registrationNumber":"VCI/MH/2012/88220","village":"Bharatpur Khurd","city":"Ranchi","district":"Hubballi","state":"Maharashtra","stateCode":"MH","lat":18.41747,"lng":71.50426,"yearsExperience":22,"languages":["hi"],"available":true},{"id":"paravet-mh149","type":"paravet","name":"Dr. Priya Joshi","phone":"917504137860","email":"priya.joshi52@vetmail.in","qualification":"BVSc & AH (Paravet extension)","college":"KVAFSU Bidar","licenseBody":"State Animal Husbandry Dept","registrationNumber":"PV/MH/2012/20738","village":"Khurd Khurd","city":"Mysuru","district":"Agra","state":"Maharashtra","stateCode":"MH","lat":18.22363,"lng":73.43119,"yearsExperience":11,"languages":["hi","en"],"available":false},{"id":"vet-mh150","type":"vet","name":"Dr. Ashok Saini","phone":"918740587792","email":"ashok.saini48@vetmail.in","qualification":"BVSc & AH, MVSc (Medicine)","college":"Kerala Veterinary University","licenseBody":"Veterinary Council of India","registrationNumber":"VCI/MH/2015/18398","village":null,"city":"Guwahati","district":"Meerut","state":"Maharashtra","stateCode":"MH","lat":17.04837,"lng":73.41412,"yearsExperience":27,"languages":["hi"],"available":true},{"id":"paravet-mh151","type":"paravet","name":"Dr. Geeta Kaur","phone":"919655165688","email":"geeta.kaur4@vetmail.in","qualification":"Diploma in Animal Husbandry (DAH)","college":"OUAT Bhubaneswar","licenseBody":"State Animal Husbandry Dept","registrationNumber":"PV/MH/2016/61056","village":null,"city":"Kanpur","district":"Bhopal Rural","state":"Maharashtra","stateCode":"MH","lat":17.37034,"lng":71.29621,"yearsExperience":24,"languages":["hi"],"available":true},{"id":"vet-mh152","type":"vet","name":"Dr. Sunil Kumar","phone":"916010281538","email":"sunil.kumar1@vetmail.in","qualification":"BVSc & AH, MVSc","college":"GBPUAT Pantnagar","licenseBody":"Veterinary Council of India","registrationNumber":"VCI/MH/2023/60388","village":"Kalan Nagar","city":"Surat","district":"Guwahati District","state":"Maharashtra","stateCode":"MH","lat":18.02954,"lng":70.9175,"yearsExperience":5,"languages":["hi","en"],"available":true},{"id":"paravet-mh153","type":"paravet","name":"Dr. Anita Pandey","phone":"919834566420","email":"anita.pandey21@vetmail.in","qualification":"BVSc & AH (Paravet extension)","college":"WBUAFS Kolkata","licenseBody":"State Animal Husbandry Dept","registrationNumber":"PV/MH/2014/78909","village":null,"city":"Bhubaneswar","district":"Guwahati District","state":"Maharashtra","stateCode":"MH","lat":19.18752,"lng":71.84637,"yearsExperience":6,"languages":["hi","en"],"available":true},{"id":"paravet-mh154","type":"paravet","name":"Dr. Pradeep Mehta","phone":"919904172092","email":"pradeep.mehta13@vetmail.in","qualification":"Certificate in Livestock Health Worker (LHW)","college":"IVRI Bareilly","licenseBody":"State Animal Husbandry Dept","registrationNumber":"PV/MH/2011/79179","village":"Patti","city":"Ranchi","district":"Ahmedabad District","state":"Maharashtra","stateCode":"MH","lat":17.08119,"lng":74.30676,"yearsExperience":14,"languages":["hi"],"available":true},{"id":"paravet-mh155","type":"paravet","name":"Dr. Suresh Das","phone":"919671869815","email":"suresh.das77@vetmail.in","qualification":"BVSc & AH (Paravet extension)","college":"MAFSU Nagpur","licenseBody":"State Animal Husbandry Dept","registrationNumber":"PV/MH/2016/23319","village":"Patti Kalan","city":"Meerut","district":"Lucknow Rural","state":"Maharashtra","stateCode":"MH","lat":17.01986,"lng":71.93022,"yearsExperience":14,"languages":["hi","en"],"available":true},{"id":"vet-mh156","type":"vet","name":"Dr. Radha Mehta","phone":"916889224990","email":"radha.mehta52@vetmail.in","qualification":"BVSc & AH, MVSc (Surgery)","college":"Bihar Veterinary College","licenseBody":"Veterinary Council of India","registrationNumber":"VCI/MH/2012/67097","village":"Krishnapur Kalan","city":"Raipur","district":"Indore District","state":"Maharashtra","stateCode":"MH","lat":20.96249,"lng":74.17011,"yearsExperience":9,"languages":["hi","en"],"available":false},{"id":"paravet-mh157","type":"paravet","name":"Dr. Pooja Rao","phone":"919530186681","email":"pooja.rao59@vetmail.in","qualification":"NDDB AI Technician + Animal Health","college":"IVRI Bareilly","licenseBody":"State Animal Husbandry Dept","registrationNumber":"PV/MH/2016/89419","village":"Ramnagar Nagar","city":"Patna","district":"Jaipur","state":"Maharashtra","stateCode":"MH","lat":19.1134,"lng":73.12596,"yearsExperience":17,"languages":["hi","en"],"available":true},{"id":"paravet-mh158","type":"paravet","name":"Dr. Sunita Verma","phone":"918437254511","email":"sunita.verma70@vetmail.in","qualification":"NDDB AI Technician + Animal Health","college":"KVAFSU Bidar","licenseBody":"State Animal Husbandry Dept","registrationNumber":"PV/MH/2021/44350","village":"Gangapur Kalan","city":"Jaipur","district":"Patna Rural","state":"Maharashtra","stateCode":"MH","lat":17.18237,"lng":71.57254,"yearsExperience":17,"languages":["hi","en"],"available":true},{"id":"paravet-mh159","type":"paravet","name":"Dr. Neha Mishra","phone":"918596291467","email":"neha.mishra38@vetmail.in","qualification":"Certificate in Livestock Health Worker (LHW)","college":"WBUAFS Kolkata","licenseBody":"State Animal Husbandry Dept","registrationNumber":"PV/MH/2016/31666","village":"Basantpur Khurd","city":"Bhubaneswar","district":"Jaipur Rural","state":"Maharashtra","stateCode":"MH","lat":19.39948,"lng":75.07941,"yearsExperience":18,"languages":["hi","en"],"available":true},{"id":"paravet-mh160","type":"paravet","name":"Dr. Pooja Rao","phone":"916427053548","email":"pooja.rao35@vetmail.in","qualification":"BVSc & AH (Paravet extension)","college":"MAFSU Nagpur","licenseBody":"State Animal Husbandry Dept","registrationNumber":"PV/MH/2023/41813","village":"Bajpur Khurd","city":"Amritsar","district":"Jaipur Rural","state":"Maharashtra","stateCode":"MH","lat":18.98495,"lng":72.29699,"yearsExperience":22,"languages":["hi","en"],"available":true},{"id":"paravet-mh161","type":"paravet","name":"Dr. Mohan Rao","phone":"919999302359","email":"mohan.rao40@vetmail.in","qualification":"NDDB AI Technician + Animal Health","college":"State AH Department Training","licenseBody":"State Animal Husbandry Dept","registrationNumber":"PV/MH/2020/55365","village":"Kishanpur Nagar","city":"Ahmedabad","district":"Patna Rural","state":"Maharashtra","stateCode":"MH","lat":17.60048,"lng":70.99249,"yearsExperience":13,"languages":["hi"],"available":true},{"id":"paravet-mh162","type":"paravet","name":"Dr. Arun Pandey","phone":"917795371318","email":"arun.pandey84@vetmail.in","qualification":"Certificate in Livestock Health Worker (LHW)","college":"Rajasthan University of Veterinary Sciences","licenseBody":"State Animal Husbandry Dept","registrationNumber":"PV/MH/2023/82709","village":"Shivpuri Khurd","city":"Amritsar","district":"Ludhiana District","state":"Maharashtra","stateCode":"MH","lat":17.71847,"lng":72.17944,"yearsExperience":20,"languages":["hi","en"],"available":true},{"id":"paravet-mh163","type":"paravet","name":"Dr. Sanjay Saini","phone":"918586881977","email":"sanjay.saini27@vetmail.in","qualification":"BVSc & AH (Paravet extension)","college":"State AH Department Training","licenseBody":"State Animal Husbandry Dept","registrationNumber":"PV/MH/2018/13373","village":null,"city":"Surat","district":"Madurai Rural","state":"Maharashtra","stateCode":"MH","lat":20.01163,"lng":74.20862,"yearsExperience":16,"languages":["hi","en"],"available":true},{"id":"vet-mh164","type":"vet","name":"Dr. Pradeep Yadav","phone":"918795500851","email":"pradeep.yadav58@vetmail.in","qualification":"BVSc & AH","college":"MAFSU Nagpur","licenseBody":"Veterinary Council of India","registrationNumber":"VCI/MH/2021/33516","village":"Kalan Nagar","city":"Indore","district":"Nagpur","state":"Maharashtra","stateCode":"MH","lat":19.95919,"lng":74.68646,"yearsExperience":8,"languages":["hi"],"available":true},{"id":"vet-mh165","type":"vet","name":"Dr. Vinod Joshi","phone":"917458905707","email":"vinod.joshi18@vetmail.in","qualification":"BVSc & AH, MVSc (Medicine)","college":"LUVAS Hisar","licenseBody":"Veterinary Council of India","registrationNumber":"VCI/MH/2016/52831","village":"Rampur Khurd","city":"Meerut","district":"Surat Rural","state":"Maharashtra","stateCode":"MH","lat":18.78809,"lng":71.5194,"yearsExperience":17,"languages":["hi","en"],"available":true},{"id":"paravet-mh166","type":"paravet","name":"Dr. Lakshmi Pandey","phone":"916564507192","email":"lakshmi.pandey76@vetmail.in","qualification":"Certificate in Livestock Health Worker (LHW)","college":"MAFSU Nagpur","licenseBody":"State Animal Husbandry Dept","registrationNumber":"PV/MH/2018/25509","village":null,"city":"Indore","district":"Bhubaneswar Rural","state":"Maharashtra","stateCode":"MH","lat":18.34495,"lng":72.40189,"yearsExperience":24,"languages":["hi","en"],"available":true},{"id":"paravet-mh167","type":"paravet","name":"Dr. Arun Joshi","phone":"916358184558","email":"arun.joshi66@vetmail.in","qualification":"NDDB AI Technician + Animal Health","college":"Rajasthan University of Veterinary Sciences","licenseBody":"State Animal Husbandry Dept","registrationNumber":"PV/MH/2021/43128","village":"Kheri Kalan","city":"Surat","district":"Indore District","state":"Maharashtra","stateCode":"MH","lat":17.78309,"lng":73.18427,"yearsExperience":27,"languages":["hi","en"],"available":true},{"id":"paravet-mh168","type":"paravet","name":"Dr. Ashok Gupta","phone":"919605715431","email":"ashok.gupta41@vetmail.in","qualification":"BVSc & AH (Paravet extension)","college":"Rajasthan University of Veterinary Sciences","licenseBody":"State Animal Husbandry Dept","registrationNumber":"PV/MH/2019/37943","village":"Sultanpur","city":"Madurai","district":"Guwahati","state":"Maharashtra","stateCode":"MH","lat":20.68195,"lng":74.70541,"yearsExperience":5,"languages":["hi","en"],"available":true},{"id":"paravet-mh169","type":"paravet","name":"Dr. Lakshmi Kaur","phone":"916279672287","email":"lakshmi.kaur59@vetmail.in","qualification":"NDDB AI Technician + Animal Health","college":"OUAT Bhubaneswar","licenseBody":"State Animal Husbandry Dept","registrationNumber":"PV/MH/2023/93160","village":null,"city":"Indore","district":"Patna","state":"Maharashtra","stateCode":"MH","lat":19.22303,"lng":74.08566,"yearsExperience":10,"languages":["hi"],"available":true},{"id":"paravet-mh170","type":"paravet","name":"Dr. Arun Kumar","phone":"919086069070","email":"arun.kumar13@vetmail.in","qualification":"Certificate in Livestock Health Worker (LHW)","college":"Rajasthan University of Veterinary Sciences","licenseBody":"State Animal Husbandry Dept","registrationNumber":"PV/MH/2020/61299","village":"Chandpur Khurd","city":"Lucknow","district":"Jaipur Rural","state":"Maharashtra","stateCode":"MH","lat":18.55564,"lng":71.93637,"yearsExperience":4,"languages":["hi"],"available":true},{"id":"paravet-mh171","type":"paravet","name":"Dr. Ashok Singh","phone":"919365804343","email":"ashok.singh90@vetmail.in","qualification":"Certificate in Livestock Health Worker (LHW)","college":"GADVASU Ludhiana","licenseBody":"State Animal Husbandry Dept","registrationNumber":"PV/MH/2011/14974","village":"Rampur Khurd","city":"Agra","district":"Rajkot","state":"Maharashtra","stateCode":"MH","lat":20.11724,"lng":72.89876,"yearsExperience":11,"languages":["hi","en"],"available":true},{"id":"paravet-mh172","type":"paravet","name":"Dr. Pradeep Mishra","phone":"918172902671","email":"pradeep.mishra10@vetmail.in","qualification":"NDDB AI Technician + Animal Health","college":"IVRI Bareilly","licenseBody":"State Animal Husbandry Dept","registrationNumber":"PV/MH/2013/76081","village":"Kishanpur Nagar","city":"Meerut","district":"Jaipur District","state":"Maharashtra","stateCode":"MH","lat":18.93715,"lng":72.83072,"yearsExperience":8,"languages":["hi"],"available":true},{"id":"paravet-mh173","type":"paravet","name":"Dr. Geeta Gupta","phone":"916824880046","email":"geeta.gupta76@vetmail.in","qualification":"Certificate in Livestock Health Worker (LHW)","college":"LUVAS Hisar","licenseBody":"State Animal Husbandry Dept","registrationNumber":"PV/MH/2016/61003","village":null,"city":"Amritsar","district":"Guwahati Rural","state":"Maharashtra","stateCode":"MH","lat":20.0953,"lng":71.33618,"yearsExperience":27,"languages":["hi","en"],"available":true},{"id":"paravet-mh174","type":"paravet","name":"Dr. Kavita Rao","phone":"919421173463","email":"kavita.rao80@vetmail.in","qualification":"BVSc & AH (Paravet extension)","college":"LUVAS Hisar","licenseBody":"State Animal Husbandry Dept","registrationNumber":"PV/MH/2010/30513","village":"Lakhanpur Nagar","city":"Coimbatore","district":"Ranchi District","state":"Maharashtra","stateCode":"MH","lat":19.81483,"lng":72.3672,"yearsExperience":27,"languages":["hi","en"],"available":true},{"id":"paravet-mh175","type":"paravet","name":"Dr. Arun Yadav","phone":"916100883536","email":"arun.yadav69@vetmail.in","qualification":"Diploma in Animal Husbandry (DAH)","college":"AAU Anand","licenseBody":"State Animal Husbandry Dept","registrationNumber":"PV/MH/2012/26698","village":"Devgarh Khurd","city":"Varanasi","district":"Jaipur Rural","state":"Maharashtra","stateCode":"MH","lat":19.39263,"lng":72.87471,"yearsExperience":20,"languages":["hi"],"available":true},{"id":"vet-mh176","type":"vet","name":"Dr. Neha Mehta","phone":"917292092234","email":"neha.mehta96@vetmail.in","qualification":"BVSc & AH, MVSc (Surgery)","college":"WBUAFS Kolkata","licenseBody":"Veterinary Council of India","registrationNumber":"VCI/MH/2020/66927","village":null,"city":"Raipur","district":"Raipur District","state":"Maharashtra","stateCode":"MH","lat":18.67629,"lng":73.21287,"yearsExperience":14,"languages":["hi","en"],"available":false},{"id":"paravet-mh177","type":"paravet","name":"Harish Kaur Devi","phone":"919290547078","email":"harish.kaur66@vetmail.in","qualification":"Diploma in Animal Husbandry (DAH)","college":"GADVASU Ludhiana","licenseBody":"State Animal Husbandry Dept","registrationNumber":"PV/MH/2023/38501","village":"Sitapur Kalan","city":"Varanasi","district":"Amritsar Rural","state":"Maharashtra","stateCode":"MH","lat":19.49422,"lng":72.97644,"yearsExperience":15,"languages":["hi"],"available":true},{"id":"vet-mh178","type":"vet","name":"Dr. Rajesh Mehta","phone":"919146265100","email":"rajesh.mehta18@vetmail.in","qualification":"BVSc & AH","college":"LUVAS Hisar","licenseBody":"Veterinary Council of India","registrationNumber":"VCI/MH/2013/66485","village":"Patti","city":"Hubballi","district":"Madurai","state":"Maharashtra","stateCode":"MH","lat":19.29265,"lng":72.85996,"yearsExperience":10,"languages":["hi","en"],"available":true},{"id":"paravet-mh179","type":"paravet","name":"Sunil Devi Devi","phone":"916041888049","email":"sunil.devi19@vetmail.in","qualification":"BVSc & AH (Paravet extension)","college":"LUVAS Hisar","licenseBody":"State Animal Husbandry Dept","registrationNumber":"PV/MH/2016/15911","village":"Lakhanpur Kalan","city":"Pune","district":"Pune District","state":"Maharashtra","stateCode":"MH","lat":18.57874,"lng":71.65354,"yearsExperience":9,"languages":["hi"],"available":true},{"id":"vet-mh180","type":"vet","name":"Dr. Suman Verma","phone":"919279510209","email":"suman.verma26@vetmail.in","qualification":"BVSc & AH, MVSc (Medicine)","college":"GBPUAT Pantnagar","licenseBody":"Veterinary Council of India","registrationNumber":"VCI/MH/2015/54214","village":null,"city":"Madurai","district":"Jaipur","state":"Maharashtra","stateCode":"MH","lat":16.98251,"lng":74.46275,"yearsExperience":1,"languages":["hi","en"],"available":true},{"id":"paravet-mh181","type":"paravet","name":"Dr. Lakshmi Gupta","phone":"919530353109","email":"lakshmi.gupta42@vetmail.in","qualification":"Certificate in Livestock Health Worker (LHW)","college":"WBUAFS Kolkata","licenseBody":"State Animal Husbandry Dept","registrationNumber":"PV/MH/2014/65933","village":null,"city":"Kanpur","district":"Indore","state":"Maharashtra","stateCode":"MH","lat":20.84837,"lng":72.14508,"yearsExperience":3,"languages":["hi"],"available":true},{"id":"paravet-mh182","type":"paravet","name":"Dr. Harish Das","phone":"917609387518","email":"harish.das15@vetmail.in","qualification":"Diploma in Animal Husbandry (DAH)","college":"KVAFSU Bidar","licenseBody":"State Animal Husbandry Dept","registrationNumber":"PV/MH/2015/61154","village":null,"city":"Kanpur","district":"Surat Rural","state":"Maharashtra","stateCode":"MH","lat":17.87229,"lng":73.07039,"yearsExperience":9,"languages":["hi","en"],"available":true},{"id":"vet-mh183","type":"vet","name":"Dr. Ashok Pandey","phone":"919898769741","email":"ashok.pandey62@vetmail.in","qualification":"BVSc & AH, MVSc (Medicine)","college":"IVRI Bareilly","licenseBody":"Veterinary Council of India","registrationNumber":"VCI/MH/2020/45247","village":null,"city":"Jaipur","district":"Agra","state":"Maharashtra","stateCode":"MH","lat":17.02226,"lng":71.89638,"yearsExperience":16,"languages":["hi"],"available":true},{"id":"paravet-mh184","type":"paravet","name":"Dr. Gopal Joshi","phone":"916293703896","email":"gopal.joshi43@vetmail.in","qualification":"NDDB AI Technician + Animal Health","college":"Bihar Veterinary College","licenseBody":"State Animal Husbandry Dept","registrationNumber":"PV/MH/2020/77363","village":"Kishanpur Nagar","city":"Guwahati","district":"Ahmedabad Rural","state":"Maharashtra","stateCode":"MH","lat":18.55091,"lng":70.79131,"yearsExperience":2,"languages":["hi","en"],"available":false},{"id":"vet-mh185","type":"vet","name":"Dr. Gopal Nair","phone":"919960518303","email":"gopal.nair29@vetmail.in","qualification":"BVSc & AH, MVSc (Surgery)","college":"Rajasthan University of Veterinary Sciences","licenseBody":"Veterinary Council of India","registrationNumber":"VCI/MH/2013/30421","village":null,"city":"Bhopal","district":"Mysuru","state":"Maharashtra","stateCode":"MH","lat":20.93511,"lng":74.92083,"yearsExperience":14,"languages":["hi","en"],"available":true},{"id":"vet-mh186","type":"vet","name":"Dr. Rekha Choudhary","phone":"917638559486","email":"rekha.choudhary51@vetmail.in","qualification":"BVSc & AH, MVSc","college":"WBUAFS Kolkata","licenseBody":"Veterinary Council of India","registrationNumber":"VCI/MH/2021/69183","village":"Kalan","city":"Bhopal","district":"Nagpur District","state":"Maharashtra","stateCode":"MH","lat":18.38618,"lng":73.86294,"yearsExperience":25,"languages":["hi","en"],"available":true},{"id":"paravet-mh187","type":"paravet","name":"Dr. Pradeep Kumar","phone":"917275767411","email":"pradeep.kumar35@vetmail.in","qualification":"Diploma in Animal Husbandry (DAH)","college":"GADVASU Ludhiana","licenseBody":"State Animal Husbandry Dept","registrationNumber":"PV/MH/2023/77546","village":null,"city":"Hubballi","district":"Patna","state":"Maharashtra","stateCode":"MH","lat":16.87352,"lng":73.57304,"yearsExperience":7,"languages":["hi"],"available":true},{"id":"paravet-mh188","type":"paravet","name":"Dr. Vinod Sharma","phone":"919808587442","email":"vinod.sharma42@vetmail.in","qualification":"Certificate in Livestock Health Worker (LHW)","college":"AAU Anand","licenseBody":"State Animal Husbandry Dept","registrationNumber":"PV/MH/2020/64566","village":"Patti Kalan","city":"Hubballi","district":"Mysuru Rural","state":"Maharashtra","stateCode":"MH","lat":20.20487,"lng":71.95496,"yearsExperience":23,"languages":["hi","en"],"available":true},{"id":"paravet-mh189","type":"paravet","name":"Dr. Priya Sharma","phone":"916514223188","email":"priya.sharma51@vetmail.in","qualification":"BVSc & AH (Paravet extension)","college":"TANUVAS Chennai","licenseBody":"State Animal Husbandry Dept","registrationNumber":"PV/MH/2018/34321","village":null,"city":"Bhubaneswar","district":"Nagpur","state":"Maharashtra","stateCode":"MH","lat":18.68459,"lng":71.72557,"yearsExperience":26,"languages":["hi","en"],"available":true},{"id":"paravet-mh190","type":"paravet","name":"Suman Das Devi","phone":"916169775371","email":"suman.das23@vetmail.in","qualification":"NDDB AI Technician + Animal Health","college":"IVRI Bareilly","licenseBody":"State Animal Husbandry Dept","registrationNumber":"PV/MH/2022/39843","village":null,"city":"Bhopal","district":"Patna District","state":"Maharashtra","stateCode":"MH","lat":18.95868,"lng":73.13604,"yearsExperience":10,"languages":["hi"],"available":true},{"id":"vet-mh191","type":"vet","name":"Dr. Kavita Saini","phone":"917342747265","email":"kavita.saini85@vetmail.in","qualification":"BVSc & AH, MVSc (Medicine)","college":"OUAT Bhubaneswar","licenseBody":"Veterinary Council of India","registrationNumber":"VCI/MH/2016/82453","village":"Lakhanpur","city":"Ahmedabad","district":"Amritsar District","state":"Maharashtra","stateCode":"MH","lat":18.52807,"lng":73.97777,"yearsExperience":13,"languages":["hi","en"],"available":true},{"id":"paravet-mh192","type":"paravet","name":"Dr. Amit Thakur","phone":"919328648931","email":"amit.thakur29@vetmail.in","qualification":"NDDB AI Technician + Animal Health","college":"OUAT Bhubaneswar","licenseBody":"State Animal Husbandry Dept","registrationNumber":"PV/MH/2016/14898","village":"Sonpur Nagar","city":"Mysuru","district":"Lucknow District","state":"Maharashtra","stateCode":"MH","lat":17.35154,"lng":72.40895,"yearsExperience":5,"languages":["hi"],"available":true},{"id":"paravet-mh193","type":"paravet","name":"Dr. Meena Thakur","phone":"918977425238","email":"meena.thakur20@vetmail.in","qualification":"Diploma in Animal Husbandry (DAH)","college":"WBUAFS Kolkata","licenseBody":"State Animal Husbandry Dept","registrationNumber":"PV/MH/2020/48987","village":"Rampur Kalan","city":"Bhubaneswar","district":"Ahmedabad","state":"Maharashtra","stateCode":"MH","lat":21.32121,"lng":71.70243,"yearsExperience":15,"languages":["hi","en"],"available":true},{"id":"paravet-mh194","type":"paravet","name":"Dr. Dinesh Nair","phone":"919225080077","email":"dinesh.nair56@vetmail.in","qualification":"Diploma in Animal Husbandry (DAH)","college":"Rajasthan University of Veterinary Sciences","licenseBody":"State Animal Husbandry Dept","registrationNumber":"PV/MH/2018/30166","village":"Kishanpur Kalan","city":"Guwahati","district":"Lucknow Rural","state":"Maharashtra","stateCode":"MH","lat":17.41144,"lng":74.52112,"yearsExperience":3,"languages":["hi","en"],"available":false},{"id":"paravet-mh195","type":"paravet","name":"Dr. Kavita Mehta","phone":"916397866567","email":"kavita.mehta3@vetmail.in","qualification":"BVSc & AH (Paravet extension)","college":"Bihar Veterinary College","licenseBody":"State Animal Husbandry Dept","registrationNumber":"PV/MH/2013/37416","village":"Khurd Kalan","city":"Indore","district":"Amritsar Rural","state":"Maharashtra","stateCode":"MH","lat":19.70356,"lng":72.42629,"yearsExperience":23,"languages":["hi","en"],"available":true},{"id":"paravet-mh196","type":"paravet","name":"Dr. Lakshmi Saini","phone":"919535949820","email":"lakshmi.saini79@vetmail.in","qualification":"BVSc & AH (Paravet extension)","college":"DUVASU Mathura","licenseBody":"State Animal Husbandry Dept","registrationNumber":"PV/MH/2013/37765","village":null,"city":"Meerut","district":"Surat District","state":"Maharashtra","stateCode":"MH","lat":17.91321,"lng":71.0096,"yearsExperience":21,"languages":["hi"],"available":true},{"id":"vet-mh197","type":"vet","name":"Dr. Deepak Yadav","phone":"916979375622","email":"deepak.yadav64@vetmail.in","qualification":"BVSc & AH, MVSc","college":"Assam Agricultural University","licenseBody":"Veterinary Council of India","registrationNumber":"VCI/MH/2013/45902","village":"Chandpur Khurd","city":"Hubballi","district":"Lucknow","state":"Maharashtra","stateCode":"MH","lat":18.0267,"lng":72.41118,"yearsExperience":22,"languages":["hi","en"],"available":true},{"id":"vet-mh198","type":"vet","name":"Dr. Deepak Verma","phone":"916263131440","email":"deepak.verma54@vetmail.in","qualification":"BVSc & AH, MVSc","college":"KVAFSU Bidar","licenseBody":"Veterinary Council of India","registrationNumber":"VCI/MH/2017/65294","village":"Nandgaon Nagar","city":"Surat","district":"Guwahati District","state":"Maharashtra","stateCode":"MH","lat":17.96027,"lng":71.72007,"yearsExperience":4,"languages":["hi","en"],"available":true},{"id":"paravet-mh199","type":"paravet","name":"Dr. Lakshmi Pandey","phone":"916352529707","email":"lakshmi.pandey67@vetmail.in","qualification":"Diploma in Animal Husbandry (DAH)","college":"LUVAS Hisar","licenseBody":"State Animal Husbandry Dept","registrationNumber":"PV/MH/2019/85151","village":null,"city":"Ranchi","district":"Varanasi District","state":"Maharashtra","stateCode":"MH","lat":20.04235,"lng":74.10118,"yearsExperience":8,"languages":["hi","en"],"available":true},{"id":"vet-mh200","type":"vet","name":"Dr. Mohan Kaur","phone":"917507062803","email":"mohan.kaur46@vetmail.in","qualification":"BVSc & AH, MVSc","college":"IVRI Bareilly","licenseBody":"Veterinary Council of India","registrationNumber":"VCI/MH/2016/49683","village":"Sitapur Nagar","city":"Guwahati","district":"Mysuru Rural","state":"Maharashtra","stateCode":"MH","lat":18.47467,"lng":70.805,"yearsExperience":18,"languages":["hi"],"available":false},{"id":"paravet-mh201","type":"paravet","name":"Dr. Suman Nair","phone":"916166060865","email":"suman.nair53@vetmail.in","qualification":"Diploma in Animal Husbandry (DAH)","college":"WBUAFS Kolkata","licenseBody":"State Animal Husbandry Dept","registrationNumber":"PV/MH/2023/33934","village":"Mohanpur Nagar","city":"Agra","district":"Ahmedabad Rural","state":"Maharashtra","stateCode":"MH","lat":17.47143,"lng":74.40019,"yearsExperience":21,"languages":["hi","en"],"available":true},{"id":"paravet-mh202","type":"paravet","name":"Dr. Mohan Mishra","phone":"918642388191","email":"mohan.mishra43@vetmail.in","qualification":"Diploma in Animal Husbandry (DAH)","college":"OUAT Bhubaneswar","licenseBody":"State Animal Husbandry Dept","registrationNumber":"PV/MH/2020/52437","village":null,"city":"Raipur","district":"Indore Rural","state":"Maharashtra","stateCode":"MH","lat":18.77957,"lng":70.72914,"yearsExperience":18,"languages":["hi"],"available":true},{"id":"vet-mh203","type":"vet","name":"Amit Sharma Devi","phone":"918484842688","email":"amit.sharma1@vetmail.in","qualification":"BVSc & AH, MVSc (Medicine)","college":"DUVASU Mathura","licenseBody":"Veterinary Council of India","registrationNumber":"VCI/MH/2010/64646","village":"Mohanpur","city":"Varanasi","district":"Jaipur Rural","state":"Maharashtra","stateCode":"MH","lat":17.01079,"lng":74.76801,"yearsExperience":11,"languages":["hi","en"],"available":true},{"id":"vet-mh204","type":"vet","name":"Dr. Gopal Yadav","phone":"916434698724","email":"gopal.yadav7@vetmail.in","qualification":"BVSc & AH, MVSc","college":"MAFSU Nagpur","licenseBody":"Veterinary Council of India","registrationNumber":"VCI/MH/2016/27813","village":"Kalan Kalan","city":"Indore","district":"Hubballi","state":"Maharashtra","stateCode":"MH","lat":20.0184,"lng":72.5238,"yearsExperience":2,"languages":["hi","en"],"available":true},{"id":"paravet-mh205","type":"paravet","name":"Ravi Thakur Devi","phone":"919986684212","email":"ravi.thakur95@vetmail.in","qualification":"BVSc & AH (Paravet extension)","college":"LUVAS Hisar","licenseBody":"State Animal Husbandry Dept","registrationNumber":"PV/MH/2019/58294","village":"Rampur Khurd","city":"Bhubaneswar","district":"Ranchi District","state":"Maharashtra","stateCode":"MH","lat":19.98243,"lng":73.10138,"yearsExperience":25,"languages":["hi","en"],"available":true},{"id":"vet-mh206","type":"vet","name":"Dr. Arun Devi","phone":"917389903420","email":"arun.devi3@vetmail.in","qualification":"BVSc & AH","college":"Kerala Veterinary University","licenseBody":"Veterinary Council of India","registrationNumber":"VCI/MH/2010/61669","village":"Basantpur Nagar","city":"Pune","district":"Madurai Rural","state":"Maharashtra","stateCode":"MH","lat":17.15266,"lng":73.7887,"yearsExperience":18,"languages":["hi","en"],"available":true},{"id":"vet-mh207","type":"vet","name":"Priya Yadav Devi","phone":"916904765887","email":"priya.yadav44@vetmail.in","qualification":"BVSc & AH, MVSc (Surgery)","college":"AAU Anand","licenseBody":"Veterinary Council of India","registrationNumber":"VCI/MH/2016/48398","village":"Krishnapur Kalan","city":"Amritsar","district":"Bhopal Rural","state":"Maharashtra","stateCode":"MH","lat":21.31648,"lng":72.92386,"yearsExperience":8,"languages":["hi"],"available":false},{"id":"paravet-mh208","type":"paravet","name":"Geeta Rao Devi","phone":"917127904811","email":"geeta.rao49@vetmail.in","qualification":"Certificate in Livestock Health Worker (LHW)","college":"WBUAFS Kolkata","licenseBody":"State Animal Husbandry Dept","registrationNumber":"PV/MH/2012/66558","village":"Patti Nagar","city":"Patna","district":"Meerut Rural","state":"Maharashtra","stateCode":"MH","lat":21.17935,"lng":74.36411,"yearsExperience":19,"languages":["hi","en"],"available":true},