[{"id":"paravet-uk0","type":"paravet","name":"Dr. Pradeep Saini","phone":"917128333502","email":"pradeep.saini32@vetmail.in","qualification":"Certificate in Livestock Health Worker (LHW)","college":"AAU Anand","licenseBody":"State Animal Husbandry Dept","registrationNumber":"PV/UK/2010/29430","village":"Mohanpur","city":"Nagpur","district":"Raipur Rural","state":"Uttarakhand","stateCode":"UK","lat":29.27493,"lng":79.35443,"yearsExperience":15,"languages":["hi","en"],"available":true},{"id":"paravet-uk1","type":"paravet","name":"Dr. Pooja Singh","phone":"918551252191","email":"pooja.singh62@vetmail.in","qualification":"BVSc & AH (Paravet extension)","college":"WBUAFS Kolkata","licenseBody":"State Animal Husbandry Dept","registrationNumber":"PV/UK/2023/32691","village":"Mohanpur Kalan","city":"Lucknow","district":"Mysuru","state":"Uttarakhand","stateCode":"UK","lat":30.53104,"lng":80.62126,"yearsExperience":22,"languages":["hi"],"available":true},{"id":"vet-uk2","type":"vet","name":"Dr. Dinesh Saini","phone":"918323666408","email":"dinesh.saini13@vetmail.in","qualification":"BVSc & AH, MVSc (Medicine)","college":"DUVASU Mathura","licenseBody":"Veterinary Council of India","registrationNumber":"VCI/UK/2013/79066","village":"Khurd Khurd","city":"Ahmedabad","district":"Hubballi District","state":"Uttarakhand","stateCode":"UK","lat":28.77898,"lng":80.21866,"yearsExperience":25,"languages":["hi","en"],"available":true},{"id":"paravet-uk3","type":"paravet","name":"Dr. Sunil Singh","phone":"917590065489","email":"sunil.singh27@vetmail.in","qualification":"BVSc & AH (Paravet extension)","college":"IVRI Bareilly","licenseBody":"State Animal Husbandry Dept","registrationNumber":"PV/UK/2011/81692","village":null,"city":"Ranchi","district":"Ranchi District","state":"Uttarakhand","stateCode":"UK","lat":28.697,"lng":79.9405,"yearsExperience":26,"languages":["hi","en"],"available":true},{"id":"vet-uk4","type":"vet","name":"Priya Mehta Devi","phone":"918029368163","email":"priya.mehta5@vetmail.in","qualification":"BVSc & AH, MVSc (Medicine)","college":"Rajasthan University of Veterinary Sciences","licenseBody":"Veterinary Council of India","registrationNumber":"VCI/UK/2019/82940","village":"Nandgaon","city":"Ahmedabad","district":"Bhubaneswar District","state":"Uttarakhand","stateCode":"UK","lat":28.71223,"lng":79.09354,"yearsExperience":11,"languages":["hi","en"],"available":true},{"id":"paravet-uk5","type":"paravet","name":"Dr. Vinod Kumar","phone":"919560738405","email":"vinod.kumar23@vetmail.in","qualification":"BVSc & AH (Paravet extension)","college":"MAFSU Nagpur","licenseBody":"State Animal Husbandry Dept","registrationNumber":"PV/UK/2015/51588","village":"Bajpur","city":"Surat","district":"Jaipur Rural","state":"Uttarakhand","stateCode":"UK","lat":30.17694,"lng":79.81199,"yearsExperience":8,"languages":["hi","en"],"available":true},{"id":"vet-uk6","type":"vet","name":"Dr. Radha Yadav","phone":"917588211011","email":"radha.yadav53@vetmail.in","qualification":"BVSc & AH, MVSc","college":"WBUAFS Kolkata","licenseBody":"Veterinary Council of India","registrationNumber":"VCI/UK/2020/26811","village":"Kheri","city":"Pune","district":"Nagpur","state":"Uttarakhand","stateCode":"UK","lat":30.22255,"lng":79.98191,"yearsExperience":4,"languages":["hi","en"],"available":true},{"id":"vet-uk7","type":"vet","name":"Dr. Ravi Mehta","phone":"918692835596","email":"ravi.mehta16@vetmail.in","qualification":"BVSc & AH, MVSc (Surgery)","college":"WBUAFS Kolkata","licenseBody":"Veterinary Council of India","registrationNumber":"VCI/UK/2013/90486","village":"Sonpur Kalan","city":"Ahmedabad","district":"Ahmedabad District","state":"Uttarakhand","stateCode":"UK","lat":28.56428,"lng":78.70395,"yearsExperience":17,"languages":["hi"],"available":true},{"id":"vet-uk8","type":"vet","name":"Dr. Ashok Gupta","phone":"919695587072","email":"ashok.gupta97@vetmail.in","qualification":"BVSc & AH, MVSc (Medicine)","college":"Bihar Veterinary College","licenseBody":"Veterinary Council of India","registrationNumber":"VCI/UK/2022/43641","village":"Bharatpur Kalan","city":"Bhubaneswar","district":"Madurai Rural","state":"Uttarakhand","stateCode":"UK","lat":31.15511,"lng":76.78626,"yearsExperience":5,"languages":["hi"],"available":true},{"id":"vet-uk9","type":"vet","name":"Dr. Anita Choudhary","phone":"917716013772","email":"anita.choudhary50@vetmail.in","qualification":"BVSc & AH, MVSc (Medicine)","college":"WBUAFS Kolkata","licenseBody":"Veterinary Council of India","registrationNumber":"VCI/UK/2015/46683","village":null,"city":"Raipur","district":"Bhubaneswar Rural","state":"Uttarakhand","stateCode":"UK","lat":28.67095,"lng":80.00631,"yearsExperience":12,"languages":["hi","en"],"available":true},{"id":"vet-uk10","type":"vet","name":"Dr. Priya Sharma","phone":"919537285745","email":"priya.sharma46@vetmail.in","qualification":"BVSc & AH","college":"GBPUAT Pantnagar","licenseBody":"Veterinary Council of India","registrationNumber":"VCI/UK/2013/83218","village":null,"city":"Jaipur","district":"Agra Rural","state":"Uttarakhand","stateCode":"UK","lat":27.85872,"lng":77.27611,"yearsExperience":23,"languages":["hi","en"],"available":true},{"id":"paravet-uk11","type":"paravet","name":"Dr. Gopal Kaur","phone":"919476227091","email":"gopal.kaur96@vetmail.in","qualification":"Diploma in Animal Husbandry (DAH)","college":"LUVAS Hisar","licenseBody":"State Animal Husbandry Dept","registrationNumber":"PV/UK/2021/20240","village":"Bharatpur Khurd","city":"Hubballi","district":"Patna Rural","state":"Uttarakhand","stateCode":"UK","lat":32.03616,"lng":78.14608,"yearsExperience":6,"languages":["hi","en"],"available":true},{"id":"paravet-uk12","type":"paravet","name":"Dr. Vinod Nair","phone":"919854697361","email":"vinod.nair16@vetmail.in","qualification":"Diploma in Animal Husbandry (DAH)","college":"AAU Anand","licenseBody":"State Animal Husbandry Dept","registrationNumber":"PV/UK/2022/71417","village":"Kheri","city":"Pune","district":"Patna District","state":"Uttarakhand","stateCode":"UK","lat":29.04607,"lng":81.04357,"yearsExperience":20,"languages":["hi"],"available":true},{"id":"vet-uk13","type":"vet","name":"Dr. Ravi Mishra","phone":"917697741354","email":"ravi.mishra70@vetmail.in","qualification":"BVSc & AH, MVSc (Surgery)","college":"TANUVAS Chennai","licenseBody":"Veterinary Council of India","registrationNumber":"VCI/UK/2011/68889","village":"Patti Kalan","city":"Lucknow","district":"Coimbatore District","state":"Uttarakhand","stateCode":"UK","lat":32.23679,"lng":77.17062,"yearsExperience":4,"languages":["hi"],"available":true},{"id":"vet-uk14","type":"vet","name":"Dr. Gopal Rao","phone":"918587202493","email":"gopal.rao15@vetmail.in","qualification":"BVSc & AH, MVSc (Surgery)","college":"AAU Anand","licenseBody":"Veterinary Council of India","registrationNumber":"VCI/UK/2016/73319","village":"Kalan Kalan","city":"Indore","district":"Ranchi Rural","state":"Uttarakhand","stateCode":"UK","lat":27.98199,"lng":79.22576,"yearsExperience":21,"languages":["hi","en"],"available":true},{"id":"vet-uk15","type":"vet","name":"Dr. Mohan Reddy","phone":"917254970640","email":"mohan.reddy45@vetmail.in","qualification":"BVSc & AH, MVSc (Medicine)","college":"Bihar Veterinary College","licenseBody":"Veterinary Council of India","registrationNumber":"VCI/UK/2023/37613","village":null,"city":"Agra","district":"Nagpur District","state":"Uttarakhand","stateCode":"UK","lat":29.73003,"lng":78.34321,"yearsExperience":8,"languages":["hi","en"],"available":true},{"id":"paravet-uk16","type":"paravet","name":"Dr. Deepak Nair","phone":"916944235601","email":"deepak.nair26@vetmail.in","qualification":"BVSc & AH (Paravet extension)","college":"Bihar Veterinary College","licenseBody":"State Animal Husbandry Dept","registrationNumber":"PV/UK/2017/68066","village":"Bharatpur Kalan","city":"Bhubaneswar","district":"Guwahati Rural","state":"Uttarakhand","stateCode":"UK","lat":29.83301,"lng":81.00276,"yearsExperience":23,"languages":["hi","en"],"available":true},{"id":"vet-uk17","type":"vet","name":"Dinesh Das Devi","phone":"918703066906","email":"dinesh.das73@vetmail.in","qualification":"BVSc & AH, MVSc (Medicine)","college":"IVRI Bareilly","licenseBody":"Veterinary Council of India","registrationNumber":"VCI/UK/2017/17704","village":"Kheri Khurd","city":"Varanasi","district":"Bhubaneswar Rural","state":"Uttarakhand","stateCode":"UK","lat":28.15364,"lng":77.34353,"yearsExperience":28,"languages":["hi"],"available":true},{"id":"paravet-uk18","type":"paravet","name":"Dr. Ravi Yadav","phone":"917751621714","email":"ravi.yadav23@vetmail.in","qualification":"NDDB AI Technician + Animal Health","college":"KVK Extension","licenseBody":"State Animal Husbandry Dept","registrationNumber":"PV/UK/2023/15607","village":"Rampur","city":"Jaipur","district":"Patna","state":"Uttarakhand","stateCode":"UK","lat":30.31676,"lng":80.27483,"yearsExperience":9,"languages":["hi","en"],"available":true},{"id":"vet-uk19","type":"vet","name":"Dr. Harish Das","phone":"918116924295","email":"harish.das32@vetmail.in","qualification":"BVSc & AH","college":"Rajasthan University of Veterinary Sciences","licenseBody":"Veterinary Council of India","registrationNumber":"VCI/UK/2015/71423","village":"Devgarh","city":"Ludhiana","district":"Patna Rural","state":"Uttarakhand","stateCode":"UK","lat":30.61041,"lng":77.17608,"yearsExperience":19,"languages":["hi"],"available":true},{"id":"paravet-uk20","type":"paravet","name":"Dr. Pooja Mehta","phone":"918828932625","email":"pooja.mehta43@vetmail.in","qualification":"Certificate in Livestock Health Worker (LHW)","college":"WBUAFS Kolkata","licenseBody":"State Animal Husbandry Dept","registrationNumber":"PV/UK/2023/32141","village":"Ramnagar Khurd","city":"Rajkot","district":"Varanasi","state":"Uttarakhand","stateCode":"UK","lat":31.93656,"lng":78.22004,"yearsExperience":5,"languages":["hi"],"available":true},{"id":"paravet-uk21","type":"paravet","name":"Dr. Kavita Saini","phone":"918277180445","email":"kavita.saini59@vetmail.in","qualification":"Diploma in Animal Husbandry (DAH)","college":"Kerala Veterinary University","licenseBody":"State Animal Husbandry Dept","registrationNumber":"PV/UK/2013/32621","village":"Sultanpur Nagar","city":"Varanasi","district":"Amritsar District","state":"Uttarakhand","stateCode":"UK","lat":31.85404,"lng":78.14884,"yearsExperience":11,"languages":["hi"],"available":true},{"id":"paravet-uk22","type":"paravet","name":"Dr. Anita Joshi","phone":"919095782827","email":"anita.joshi75@vetmail.in","qualification":"NDDB AI Technician + Animal Health","college":"Assam Agricultural University","licenseBody":"State Animal Husbandry Dept","registrationNumber":"PV/UK/2020/77464","village":"Govindpur Kalan","city":"Indore","district":"Ranchi District","state":"Uttarakhand","stateCode":"UK","lat":29.17302,"lng":77.58279,"yearsExperience":2,"languages":["hi","en"],"available":true},{"id":"paravet-uk23","type":"paravet","name":"Dr. Pradeep Choudhary","phone":"918884489748","email":"pradeep.choudhary71@vetmail.in","qualification":"BVSc & AH (Paravet extension)","college":"Rajasthan University of Veterinary Sciences","licenseBody":"State Animal Husbandry Dept","registrationNumber":"PV/UK/2018/92687","village":"Sonpur Kalan","city":"Hubballi","district":"Ranchi District","state":"Uttarakhand","stateCode":"UK","lat":28.42972,"lng":78.36137,"yearsExperience":14,"languages":["hi","en"],"available":true},{"id":"vet-uk24","type":"vet","name":"Dr. Harish Pandey","phone":"918063573223","email":"harish.pandey81@vetmail.in","qualification":"BVSc & AH, MVSc (Medicine)","college":"DUVASU Mathura","licenseBody":"Veterinary Council of India","registrationNumber":"VCI/UK/2021/72819","village":"Kheri Kalan","city":"Nagpur","district":"Ahmedabad District","state":"Uttarakhand","stateCode":"UK","lat":30.5153,"lng":77.63939,"yearsExperience":9,"languages":["hi","en"],"available":true},{"id":"paravet-uk25","type":"paravet","name":"Dr. Pradeep Choudhary","phone":"917843998087","email":"pradeep.choudhary95@vetmail.in","qualification":"Diploma in Animal Husbandry (DAH)","college":"Rajasthan University of Veterinary Sciences","licenseBody":"State Animal Husbandry Dept","registrationNumber":"PV/UK/2017/19770","village":"Kalan Kalan","city":"Surat","district":"Ludhiana Rural","state":"Uttarakhand","stateCode":"UK","lat":27.97779,"lng":81.00844,"yearsExperience":4,"languages":["hi"],"available":true},{"id":"vet-uk26","type":"vet","name":"Dr. Vijay Verma","phone":"916640313935","email":"vijay.verma10@vetmail.in","qualification":"BVSc & AH","college":"Kerala Veterinary University","licenseBody":"Veterinary Council of India","registrationNumber":"VCI/UK/2012/62493","village":"Krishnapur Khurd","city":"Jaipur","district":"Amritsar Rural","state":"Uttarakhand","stateCode":"UK","lat":30.83524,"lng":78.14595,"yearsExperience":3,"languages":["hi","en"],"available":true},{"id":"paravet-uk27","type":"paravet","name":"Dr. Pradeep Yadav","phone":"917124786925","email":"pradeep.yadav19@vetmail.in","qualification":"BVSc & AH (Paravet extension)","college":"OUAT Bhubaneswar","licenseBody":"State Animal Husbandry Dept","registrationNumber":"PV/UK/2017/16326","village":null,"city":"Mysuru","district":"Pune Rural","state":"Uttarakhand","stateCode":"UK","lat":29.0123,"lng":80.26283,"yearsExperience":27,"languages":["hi","en"],"available":false},{"id":"vet-uk28","type":"vet","name":"Dr. Radha Singh","phone":"917409502722","email":"radha.singh20@vetmail.in","qualification":"BVSc & AH","college":"MAFSU Nagpur","licenseBody":"Veterinary Council of India","registrationNumber":"VCI/UK/2020/37198","village":"Kalan","city":"Varanasi","district":"Patna District","state":"Uttarakhand","stateCode":"UK","lat":30.78898,"lng":81.19689,"yearsExperience":23,"languages":["hi","en"],"available":true},{"id":"paravet-uk29","type":"paravet","name":"Dr. Priya Singh","phone":"918772886675","email":"priya.singh6@vetmail.in","qualification":"BVSc & AH (Paravet extension)","college":"OUAT Bhubaneswar","licenseBody":"State Animal Husbandry Dept","registrationNumber":"PV/UK/2011/73353","village":"Govindpur Kalan","city":"Guwahati","district":"Ludhiana","state":"Uttarakhand","stateCode":"UK","lat":29.37414,"lng":80.75922,"yearsExperience":23,"languages":["hi","en"],"available":true},{"id":"paravet-uk30","type":"paravet","name":"Dr. Priya Yadav","phone":"916738473156","email":"priya.yadav41@vetmail.in","qualification":"NDDB AI Technician + Animal Health","college":"Kerala Veterinary University","licenseBody":"State Animal Husbandry Dept","registrationNumber":"PV/UK/2010/27465","village":null,"city":"Amritsar","district":"Nagpur District","state":"Uttarakhand","stateCode":"UK","lat":30.46665,"lng":79.86557,"yearsExperience":10,"languages":["hi","en"],"available":true},{"id":"vet-uk31","type":"vet","name":"Dr. Sunil Gupta","phone":"918435244051","email":"sunil.gupta0@vetmail.in","qualification":"BVSc & AH, MVSc (Medicine)","college":"Kerala Veterinary University","licenseBody":"Veterinary Council of India","registrationNumber":"VCI/UK/2018/73440","village":"Sultanpur Nagar","city":"Ranchi","district":"Agra Rural","state":"Uttarakhand","stateCode":"UK","lat":27.90535,"lng":77.87086,"yearsExperience":4,"languages":["hi","en"],"available":false},{"id":"paravet-uk32","type":"paravet","name":"Dr. Sunil Choudhary","phone":"919054130636","email":"sunil.choudhary84@vetmail.in","qualification":"NDDB AI Technician + Animal Health","college":"TANUVAS Chennai","licenseBody":"State Animal Husbandry Dept","registrationNumber":"PV/UK/2015/22882","village":"Lakhanpur Nagar","city":"Kanpur","district":"Raipur Rural","state":"Uttarakhand","stateCode":"UK","lat":28.01179,"lng":78.58481,"yearsExperience":24,"languages":["hi"],"available":true},{"id":"paravet-uk33","type":"paravet","name":"Dr. Radha Pandey","phone":"917077654015","email":"radha.pandey66@vetmail.in","qualification":"Diploma in Animal Husbandry (DAH)","college":"IVRI Bareilly","licenseBody":"State Animal Husbandry Dept","registrationNumber":"PV/UK/2021/56651","village":null,"city":"Kanpur","district":"Agra","state":"Uttarakhand","stateCode":"UK","lat":29.06955,"lng":80.28631,"yearsExperience":13,"languages":["hi","en"],"available":true},{"id":"paravet-uk34","type":"paravet","name":"Dr. Arun Mehta","phone":"918291227003","email":"arun.mehta60@vetmail.in","qualification":"BVSc & AH (Paravet extension)","college":"GADVASU Ludhiana","licenseBody":"State Animal Husbandry Dept","registrationNumber":"PV/UK/2013/89724","village":"Kalan Khurd","city":"Indore","district":"Madurai Rural","state":"Uttarakhand","stateCode":"UK","lat":28.06843,"lng":78.70814,"yearsExperience":15,"languages":["hi","en"],"available":true},{"id":"paravet-uk35","type":"paravet","name":"Dr. Ravi Verma","phone":"916951871054","email":"ravi.verma70@vetmail.in","qualification":"NDDB AI Technician + Animal Health","college":"LUVAS Hisar","licenseBody":"State Animal Husbandry Dept","registrationNumber":"PV/UK/2023/22818","village":"Mohanpur Khurd","city":"Ranchi","district":"Surat District","state":"Uttarakhand","stateCode":"UK","lat":30.33372,"lng":77.22553,"yearsExperience":23,"languages":["hi","en"],"available":true},{"id":"vet-uk36","type":"vet","name":"Dr. Neha Mehta","phone":"917627366790","email":"neha.mehta4@vetmail.in","qualification":"BVSc & AH, MVSc (Medicine)","college":"Assam Agricultural University","licenseBody":"Veterinary Council of India","registrationNumber":"VCI/UK/2013/75817","village":"Kheri Nagar","city":"Kanpur","district":"Meerut Rural","state":"Uttarakhand","stateCode":"UK","lat":30.72229,"lng":78.6992,"yearsExperience":19,"languages":["hi","en"],"available":true},{"id":"paravet-uk37","type":"paravet","name":"Dr. Priya Singh","phone":"918134133995","email":"priya.singh4@vetmail.in","qualification":"Diploma in Animal Husbandry (DAH)","college":"AAU Anand","licenseBody":"State Animal Husbandry Dept","registrationNumber":"PV/UK/2020/71494","village":null,"city":"Bhubaneswar","district":"Ranchi District","state":"Uttarakhand","stateCode":"UK","lat":28.16397,"lng":78.89342,"yearsExperience":24,"languages":["hi"],"available":true},{"id":"paravet-uk38","type":"paravet","name":"Dr. Sarita Joshi","phone":"918072847034","email":"sarita.joshi5@vetmail.in","qualification":"NDDB AI Technician + Animal Health","college":"AAU Anand","licenseBody":"State Animal Husbandry Dept","registrationNumber":"PV/UK/2010/13038","village":"Lakhanpur Kalan","city":"Indore","district":"Mysuru Rural","state":"Uttarakhand","stateCode":"UK","lat":30.81797,"lng":80.67979,"yearsExperience":14,"languages":["hi"],"available":true},{"id":"vet-uk39","type":"vet","name":"Dr. Ravi Thakur","phone":"918053557659","email":"ravi.thakur98@vetmail.in","qualification":"BVSc & AH, MVSc (Medicine)","college":"OUAT Bhubaneswar","licenseBody":"Veterinary Council of India","registrationNumber":"VCI/UK/2014/98651","village":"Govindpur Khurd","city":"Indore","district":"Lucknow Rural","state":"Uttarakhand","stateCode":"UK","lat":30.31335,"lng":79.64706,"yearsExperience":2,"languages":["hi"],"available":true},{"id":"paravet-uk40","type":"paravet","name":"Dr. Sunil Das","phone":"917745956784","email":"sunil.das68@vetmail.in","qualification":"Certificate in Livestock Health Worker (LHW)","college":"OUAT Bhubaneswar","licenseBody":"State Animal Husbandry Dept","registrationNumber":"PV/UK/2017/62730","village":"Chandpur Nagar","city":"Kanpur","district":"Indore","state":"Uttarakhand","stateCode":"UK","lat":29.52176,"lng":76.87898,"yearsExperience":6,"languages":["hi"],"available":true},{"id":"vet-uk41","type":"vet","name":"Dr. Sunita Saini","phone":"917466519131","email":"sunita.saini81@vetmail.in","qualification":"BVSc & AH, MVSc (Medicine)","college":"GBPUAT Pantnagar","licenseBody":"Veterinary Council of India","registrationNumber":"VCI/UK/2010/40610","village":"Lakhanpur Kalan","city":"Patna","district":"Ludhiana Rural","state":"Uttarakhand","stateCode":"UK","lat":28.72602,"lng":77.92359,"yearsExperience":20,"languages":["hi","en"],"available":true},{"id":"vet-uk42","type":"vet","name":"Dr. Sanjay Kaur","phone":"918763121873","email":"sanjay.kaur52@vetmail.in","qualification":"BVSc & AH, MVSc (Surgery)","college":"Kerala Veterinary University","licenseBody":"Veterinary Council of India","registrationNumber":"VCI/UK/2020/60437","village":"Lakhanpur Nagar","city":"Guwahati","district":"Ahmedabad","state":"Uttarakhand","stateCode":"UK","lat":28.01248,"lng":79.69568,"yearsExperience":15,"languages":["hi","en"],"available":true},{"id":"paravet-uk43","type":"paravet","name":"Dr. Suresh Singh","phone":"918133680725","email":"suresh.singh54@vetmail.in","qualification":"Diploma in Animal Husbandry (DAH)","college":"Kerala Veterinary University","licenseBody":"State Animal Husbandry Dept","registrationNumber":"PV/UK/2023/30199","village":null,"city":"Bhubaneswar","district":"Guwahati","state":"Uttarakhand","stateCode":"UK","lat":31.62956,"lng":78.13172,"yearsExperience":19,"languages":["hi","en"],"available":true},{"id":"vet-uk44","type":"vet","name":"Dr. Rekha Yadav","phone":"919607527520","email":"rekha.yadav85@vetmail.in","qualification":"BVSc & AH, MVSc","college":"LUVAS Hisar","licenseBody":"Veterinary Council of India","registrationNumber":"VCI/UK/2018/59869","village":null,"city":"Coimbatore","district":"Pune Rural","state":"Uttarakhand","stateCode":"UK","lat":29.10839,"lng":78.52548,"yearsExperience":22,"languages":["hi"],"available":true},{"id":"paravet-uk45","type":"paravet","name":"Dr. Neha Choudhary","phone":"917486705352","email":"neha.choudhary84@vetmail.in","qualification":"NDDB AI Technician + Animal Health","college":"OUAT Bhubaneswar","licenseBody":"State Animal Husbandry Dept","registrationNumber":"PV/UK/2023/90727","village":"Bharatpur Khurd","city":"Amritsar","district":"Coimbatore","state":"Uttarakhand","stateCode":"UK","lat":30.05538,"lng":80.6154,"yearsExperience":18,"languages":["hi","en"],"available":true},{"id":"paravet-uk46","type":"paravet","name":"Suman Nair Devi","phone":"917946400132","email":"suman.nair86@vetmail.in","qualification":"Certificate in Livestock Health Worker (LHW)","college":"State AH Department Training","licenseBody":"State Animal Husbandry Dept","registrationNumber":"PV/UK/2018/43590","village":"Patti Khurd","city":"Jaipur","district":"Indore","state":"Uttarakhand","stateCode":"UK","lat":31.96644,"lng":79.84104,"yearsExperience":13,"languages":["hi"],"available":true},{"id":"paravet-uk47","type":"paravet","name":"Dr. Sanjay Mehta","phone":"919021136308","email":"sanjay.mehta40@vetmail.in","qualification":"Diploma in Animal Husbandry (DAH)","college":"IVRI Bareilly","licenseBody":"State Animal Husbandry Dept","registrationNumber":"PV/UK/2012/71281","village":"Khurd Kalan","city":"Hubballi","district":"Hubballi Rural","state":"Uttarakhand","stateCode":"UK","lat":27.88443,"lng":79.87155,"yearsExperience":15,"languages":["hi"],"available":true},{"id":"vet-uk48","type":"vet","name":"Dr. Kavita Thakur","phone":"916772847881","email":"kavita.thakur44@vetmail.in","qualification":"BVSc & AH","college":"Bihar Veterinary College","licenseBody":"Veterinary Council of India","registrationNumber":"VCI/UK/2018/35408","village":null,"city":"Ranchi","district":"Ahmedabad Rural","state":"Uttarakhand","stateCode":"UK","lat":32.04062,"lng":76.83462,"yearsExperience":20,"languages":["hi"],"available":true},{"id":"paravet-uk49","type":"paravet","name":"Vinod Singh Devi","phone":"917264082438","email":"vinod.singh66@vetmail.in","qualification":"Diploma in Animal Husbandry (DAH)","college":"Kerala Veterinary University","licenseBody":"State Animal Husbandry Dept","registrationNumber":"PV/UK/2023/50319","village":"Chandpur Khurd","city":"Raipur","district":"Lucknow Rural","state":"Uttarakhand","stateCode":"UK","lat":29.84189,"lng":79.43414,"yearsExperience":20,"languages":["hi","en"],"available":true},{"id":"vet-uk50","type":"vet","name":"Dr. Rajesh Kaur","phone":"919045825556","email":"rajesh.kaur52@vetmail.in","qualification":"BVSc & AH, MVSc (Medicine)","college":"GBPUAT Pantnagar","licenseBody":"Veterinary Council of India","registrationNumber":"VCI/UK/2020/76083","village":"Chandpur","city":"Coimbatore","district":"Meerut District","state":"Uttarakhand","stateCode":"UK","lat":29.63653,"lng":78.47116,"yearsExperience":4,"languages":["hi"],"available":true},{"id":"vet-uk51","type":"vet","name":"Dr. Amit Reddy","phone":"916325895927","email":"amit.reddy5@vetmail.in","qualification":"BVSc & AH, MVSc (Surgery)","college":"LUVAS Hisar","licenseBody":"Veterinary Council of India","registrationNumber":"VCI/UK/2016/48760","village":null,"city":"Agra","district":"Madurai","state":"Uttarakhand","stateCode":"UK","lat":28.73583,"lng":79.45953,"yearsExperience":28,"languages":["hi","en"],"available":true},{"id":"paravet-uk52","type":"paravet","name":"Rajesh Devi Devi","phone":"916813246405","email":"rajesh.devi36@vetmail.in","qualification":"Certificate in Livestock Health Worker (LHW)","college":"GBPUAT Pantnagar","licenseBody":"State Animal Husbandry Dept","registrationNumber":"PV/UK/2016/72988","village":"Devgarh","city":"Agra","district":"Agra Rural","state":"Uttarakhand","stateCode":"UK","lat":27.90386,"lng":78.52492,"yearsExperience":2,"languages":["hi","en"],"available":true},{"id":"paravet-uk53","type":"paravet","name":"Dr. Meena Kumar","phone":"919965200334","email":"meena.kumar46@vetmail.in","qualification":"Certificate in Livestock Health Worker (LHW)","college":"Assam Agricultural University","licenseBody":"State Animal Husbandry Dept","registrationNumber":"PV/UK/2011/91218","village":"Kalan Kalan","city":"Lucknow","district":"Hubballi Rural","state":"Uttarakhand","stateCode":"UK","lat":29.77253,"lng":77.00431,"yearsExperience":28,"languages":["hi","en"],"available":true},{"id":"paravet-uk54","type":"paravet","name":"Dr. Pooja Yadav","phone":"918815289477","email":"pooja.yadav64@vetmail.in","qualification":"BVSc & AH (Paravet extension)","college":"Rajasthan University of Veterinary Sciences","licenseBody":"State Animal Husbandry Dept","registrationNumber":"PV/UK/2014/21027","village":"Devgarh","city":"Agra","district":"Ludhiana District","state":"Uttarakhand","stateCode":"UK","lat":30.86846,"lng":77.03375,"yearsExperience":5,"languages":["hi","en"],"available":true},{"id":"paravet-uk55","type":"paravet","name":"Dr. Rekha Choudhary","phone":"919047689499","email":"rekha.choudhary22@vetmail.in","qualification":"NDDB AI Technician + Animal Health","college":"KVK Extension","licenseBody":"State Animal Husbandry Dept","registrationNumber":"PV/UK/2021/73729","village":"Shivpuri Kalan","city":"Patna","district":"Surat Rural","state":"Uttarakhand","stateCode":"UK","lat":29.84014,"lng":80.26884,"yearsExperience":6,"languages":["hi"],"available":true},{"id":"paravet-uk56","type":"paravet","name":"Dr. Priya Kumar","phone":"919123194410","email":"priya.kumar71@vetmail.in","qualification":"Certificate in Livestock Health Worker (LHW)","college":"GADVASU Ludhiana","licenseBody":"State Animal Husbandry Dept","registrationNumber":"PV/UK/2021/76620","village":"Krishnapur Kalan","city":"Pune","district":"Meerut District","state":"Uttarakhand","stateCode":"UK","lat":29.13378,"lng":80.1942,"yearsExperience":10,"languages":["hi"],"available":true},{"id":"vet-uk57","type":"vet","name":"Dr. Sarita Pandey","phone":"917490866730","email":"sarita.pandey26@vetmail.in","qualification":"BVSc & AH, MVSc","college":"IVRI Bareilly","licenseBody":"Veterinary Council of India","registrationNumber":"VCI/UK/2014/24701","village":"Devgarh Kalan","city":"Guwahati","district":"Indore Rural","state":"Uttarakhand","stateCode":"UK","lat":28.02381,"lng":78.52756,"yearsExperience":13,"languages":["hi","en"],"available":true},{"id":"vet-uk58","type":"vet","name":"Dr. Gopal Sharma","phone":"918252729368","email":"gopal.sharma67@vetmail.in","qualification":"BVSc & AH","college":"OUAT Bhubaneswar","licenseBody":"Veterinary Council of India","registrationNumber":"VCI/UK/2018/48885","village":"Nandgaon Khurd","city":"Amritsar","district":"Bhopal District","state":"Uttarakhand","stateCode":"UK","lat":28.08533,"lng":79.08523,"yearsExperience":16,"languages":["hi","en"],"available":true},{"id":"vet-uk59","type":"vet","name":"Dr. Radha Reddy","phone":"916179720790","email":"radha.reddy98@vetmail.in","qualification":"BVSc & AH","college":"Kerala Veterinary University","licenseBody":"Veterinary Council of India","registrationNumber":"VCI/UK/2017/62975","village":null,"city":"Lucknow","district":"Hubballi","state":"Uttarakhand","stateCode":"UK","lat":28.73138,"lng":77.50281,"yearsExperience":19,"languages":["hi","en"],"available":true},{"id":"paravet-uk60","type":"paravet","name":"Dr. Suman Patel","phone":"918141701057","email":"suman.patel57@vetmail.in","qualification":"Diploma in Animal Husbandry (DAH)","college":"KVK Extension","licenseBody":"State Animal Husbandry Dept","registrationNumber":"PV/UK/2023/79520","village":"Khurd Kalan","city":"Bhopal","district":"Ranchi District","state":"Uttarakhand","stateCode":"UK","lat":30.95438,"lng":77.74032,"yearsExperience":28,"languages":["hi"],"available":true},{"id":"vet-uk61","type":"vet","name":"Dr. Mohan Mehta","phone":"917355536106","email":"mohan.mehta51@vetmail.in","qualification":"BVSc & AH, MVSc","college":"TANUVAS Chennai","licenseBody":"Veterinary Council of India","registrationNumber":"VCI/UK/2014/63833","village":null,"city":"Bhopal","district":"Hubballi Rural","state":"Uttarakhand","stateCode":"UK","lat":30.21961,"lng":79.36553,"yearsExperience":3,"languages":["hi","en"],"available":true},{"id":"vet-uk62","type":"vet","name":"Dr. Arun Patel","phone":"919364265329","email":"arun.patel0@vetmail.in","qualification":"BVSc & AH, MVSc (Medicine)","college":"OUAT Bhubaneswar","licenseBody":"Veterinary Council of India","registrationNumber":"VCI/UK/2011/73679","village":null,"city":"Bhopal","district":"Nagpur Rural","state":"Uttarakhand","stateCode":"UK","lat":32.26392,"lng":78.22701,"yearsExperience":14,"languages":["hi"],"available":true},{"id":"vet-uk63","type":"vet","name":"Dr. Meena Yadav","phone":"918333390197","email":"meena.yadav78@vetmail.in","qualification":"BVSc & AH","college":"GBPUAT Pantnagar","licenseBody":"Veterinary Council of India","registrationNumber":"VCI/UK/2020/76301","village":"Rampur","city":"Hubballi","district":"Surat","state":"Uttarakhand","stateCode":"UK","lat":28.40609,"lng":78.69286,"yearsExperience":24,"languages":["hi"],"available":true},{"id":"paravet-uk64","type":"paravet","name":"Ravi Choudhary Devi","phone":"918264395531","email":"ravi.choudhary51@vetmail.in","qualification":"NDDB AI Technician + Animal Health","college":"Kerala Veterinary University","licenseBody":"State Animal Husbandry Dept","registrationNumber":"PV/UK/2017/36856","village":"Govindpur Kalan","city":"Indore","district":"Surat","state":"Uttarakhand","stateCode":"UK","lat":28.81368,"lng":78.06301,"yearsExperience":7,"languages":["hi"],"available":true},{"id":"vet-uk65","type":"vet","name":"Dr. Sunil Choudhary","phone":"916885166204","email":"sunil.choudhary66@vetmail.in","qualification":"BVSc & AH, MVSc","college":"OUAT Bhubaneswar","licenseBody":"Veterinary Council of India","registrationNumber":"VCI/UK/2017/97029","village":"Sonpur Khurd","city":"Raipur","district":"Kanpur","state":"Uttarakhand","stateCode":"UK","lat":29.19357,"lng":79.76338,"yearsExperience":2,"languages":["hi","en"],"available":true},{"id":"paravet-uk66","type":"paravet","name":"Dr. Deepak Das","phone":"917851633317","email":"deepak.das16@vetmail.in","qualification":"Certificate in Livestock Health Worker (LHW)","college":"MAFSU Nagpur","licenseBody":"State Animal Husbandry Dept","registrationNumber":"PV/UK/2013/87124","village":"Sitapur","city":"Kanpur","district":"Indore","state":"Uttarakhand","stateCode":"UK","lat":30.04554,"lng":80.20506,"yearsExperience":19,"languages":["hi"],"available":true},{"id":"paravet-uk67","type":"paravet","name":"Dr. Vinod Verma","phone":"916534604274","email":"vinod.verma95@vetmail.in","qualification":"Certificate in Livestock Health Worker (LHW)","college":"IVRI Bareilly","licenseBody":"State Animal Husbandry Dept","registrationNumber":"PV/UK/2020/94374","village":null,"city":"Jaipur","district":"Madurai Rural","state":"Uttarakhand","stateCode":"UK","lat":28.03771,"lng":78.78433,"yearsExperience":8,"languages":["hi","en"],"available":true},{"id":"paravet-uk68","type":"paravet","name":"Dr. Manoj Saini","phone":"918497305550","email":"manoj.saini29@vetmail.in","qualification":"Certificate in Livestock Health Worker (LHW)","college":"LUVAS Hisar","licenseBody":"State Animal Husbandry Dept","registrationNumber":"PV/UK/2018/86815","village":"Kalan Nagar","city":"Rajkot","district":"Indore","state":"Uttarakhand","stateCode":"UK","lat":31.09576,"lng":79.3524,"yearsExperience":6,"languages":["hi","en"],"available":true},{"id":"paravet-uk69","type":"paravet","name":"Dr. Sarita Gupta","phone":"918326664781","email":"sarita.gupta11@vetmail.in","qualification":"Diploma in Animal Husbandry (DAH)","college":"KVAFSU Bidar","licenseBody":"State Animal Husbandry Dept","registrationNumber":"PV/UK/2011/36069","village":"Devgarh Kalan","city":"Pune","district":"Agra Rural","state":"Uttarakhand","stateCode":"UK","lat":31.62979,"lng":80.95136,"yearsExperience":23,"languages":["hi","en"],"available":true},{"id":"paravet-uk70","type":"paravet","name":"Dr. Sunil Mehta","phone":"916747889067","email":"sunil.mehta52@vetmail.in","qualification":"Diploma in Animal Husbandry (DAH)","college":"MAFSU Nagpur","licenseBody":"State Animal Husbandry Dept","registrationNumber":"PV/UK/2022/19662","village":null,"city":"Meerut","district":"Coimbatore","state":"Uttarakhand","stateCode":"UK","lat":29.03381,"lng":78.47358,"yearsExperience":4,"languages":["hi","en"],"available":true},{"id":"vet-uk71","type":"vet","name":"Dr. Geeta Sharma","phone":"917396428097","email":"geeta.sharma22@vetmail.in","qualification":"BVSc & AH, MVSc (Surgery)","college":"TANUVAS Chennai","licenseBody":"Veterinary Council of India","registrationNumber":"VCI/UK/2017/25272","village":"Govindpur Khurd","city":"Ahmedabad","district":"Madurai Rural","state":"Uttarakhand","stateCode":"UK","lat":30.92749,"lng":79.34274,"yearsExperience":12,"languages":["hi","en"],"available":true},{"id":"vet-uk72","type":"vet","name":"Dr. Sarita Gupta","phone":"916396673036","email":"sarita.gupta54@vetmail.in","qualification":"BVSc & AH, MVSc","college":"Assam Agricultural University","licenseBody":"Veterinary Council of India","registrationNumber":"VCI/UK/2019/74477","village":null,"city":"Surat","district":"Bhopal District","state":"Uttarakhand","stateCode":"UK","lat":31.76808,"lng":79.86848,"yearsExperience":2,"languages":["hi","en"],"available":true},{"id":"paravet-uk73","type":"paravet","name":"Dr. Vijay Pandey","phone":"917324675443","email":"vijay.pandey68@vetmail.in","qualification":"Diploma in Animal Husbandry (DAH)","college":"GADVASU Ludhiana","licenseBody":"State Animal Husbandry Dept","registrationNumber":"PV/UK/2023/36337","village":"Rampur Nagar","city":"Jaipur","district":"Ludhiana","state":"Uttarakhand","stateCode":"UK","lat":31.58449,"lng":81.04042,"yearsExperience":3,"languages":["hi"],"available":true},{"id":"paravet-uk74","type":"paravet","name":"Dr. Ravi Kaur","phone":"917393626143","email":"ravi.kaur81@vetmail.in","qualification":"Certificate in Livestock Health Worker (LHW)","college":"Kerala Veterinary University","licenseBody":"State Animal Husbandry Dept","registrationNumber":"PV/UK/2010/84790","village":"Khurd Kalan","city":"Madurai","district":"Patna Rural","state":"Uttarakhand","stateCode":"UK","lat":30.59688,"lng":78.06699,"yearsExperience":5,"languages":["hi"],"available":true},{"id":"vet-uk75","type":"vet","name":"Dr. Radha Sharma","phone":"916464867299","email":"radha.sharma52@vetmail.in","qualification":"BVSc & AH, MVSc","college":"IVRI Bareilly","licenseBody":"Veterinary Council of India","registrationNumber":"VCI/UK/2020/55843","village":"Sonpur Kalan","city":"Kanpur","district":"Indore District","state":"Uttarakhand","stateCode":"UK","lat":30.26571,"lng":78.62159,"yearsExperience":27,"languages":["hi"],"available":false},{"id":"vet-uk76","type":"vet","name":"Dr. Vinod Saini","phone":"917501053975","email":"vinod.saini53@vetmail.in","qualification":"BVSc & AH, MVSc (Surgery)","college":"LUVAS Hisar","licenseBody":"Veterinary Council of India","registrationNumber":"VCI/UK/2014/15260","village":"Krishnapur Kalan","city":"Guwahati","district":"Kanpur","state":"Uttarakhand","stateCode":"UK","lat":32.19194,"lng":79.22997,"yearsExperience":19,"languages":["hi"],"available":true},{"id":"vet-uk77","type":"vet","name":"Dr. Kavita Choudhary","phone":"917054515215","email":"kavita.choudhary41@vetmail.in","qualification":"BVSc & AH, MVSc (Medicine)","college":"GBPUAT Pantnagar","licenseBody":"Veterinary Council of India","registrationNumber":"VCI/UK/2018/99670","village":"Sonpur Nagar","city":"Ranchi","district":"Rajkot District","state":"Uttarakhand","stateCode":"UK","lat":28.83581,"lng":78.96533,"yearsExperience":11,"languages":["hi"],"available":true},{"id":"vet-uk78","type":"vet","name":"Dr. Dinesh Saini","phone":"916585022567","email":"dinesh.saini40@vetmail.in","qualification":"BVSc & AH, MVSc (Medicine)","college":"WBUAFS Kolkata","licenseBody":"Veterinary Council of India","registrationNumber":"VCI/UK/2012/23748","village":null,"city":"Meerut","district":"Ahmedabad Rural","state":"Uttarakhand","stateCode":"UK","lat":28.29978,"lng":78.89729,"yearsExperience":15,"languages":["hi"],"available":true},{"id":"vet-uk79","type":"vet","name":"Dr. Anita Choudhary","phone":"918731583960","email":"anita.choudhary66@vetmail.in","qualification":"BVSc & AH, MVSc","college":"IVRI Bareilly","licenseBody":"Veterinary Council of India","registrationNumber":"VCI/UK/2019/70290","village":"Sultanpur Khurd","city":"Hubballi","district":"Indore District","state":"Uttarakhand","stateCode":"UK","lat":31.60651,"lng":79.27746,"yearsExperience":11,"languages":["hi","en"],"available":false},{"id":"paravet-uk80","type":"paravet","name":"Dr. Arun Thakur","phone":"919268663968","email":"arun.thakur69@vetmail.in","qualification":"Certificate in Livestock Health Worker (LHW)","college":"DUVASU Mathura","licenseBody":"State Animal Husbandry Dept","registrationNumber":"PV/UK/2014/54170","village":null,"city":"Amritsar","district":"Mysuru District","state":"Uttarakhand","stateCode":"UK","lat":28.03691,"lng":77.11288,"yearsExperience":23,"languages":["hi","en"],"available":true},{"id":"vet-uk81","type":"vet","name":"Dr. Sanjay Saini","phone":"918191208337","email":"sanjay.saini12@vetmail.in","qualification":"BVSc & AH, MVSc (Medicine)","college":"DUVASU Mathura","licenseBody":"Veterinary Council of India","registrationNumber":"VCI/UK/2022/10481","village":"Kishanpur Nagar","city":"Amritsar","district":"Coimbatore District","state":"Uttarakhand","stateCode":"UK","lat":29.63469,"lng":80.06763,"yearsExperience":11,"languages":["hi"],"available":true},{"id":"paravet-uk82","type":"paravet","name":"Dr. Rekha Mishra","phone":"918938370895","email":"rekha.mishra95@vetmail.in","qualification":"Diploma in Animal Husbandry (DAH)","college":"MAFSU Nagpur","licenseBody":"State Animal Husbandry Dept","registrationNumber":"PV/UK/2012/61272","village":"Sonpur Khurd","city":"Bhubaneswar","district":"Lucknow Rural","state":"Uttarakhand","stateCode":"UK","lat":32.2985,"lng":77.18935,"yearsExperience":8,"languages":["hi"],"available":true},{"id":"vet-uk83","type":"vet","name":"Dr. Geeta Patel","phone":"916326772798","email":"geeta.patel43@vetmail.in","qualification":"BVSc & AH","college":"DUVASU Mathura","licenseBody":"Veterinary Council of India","registrationNumber":"VCI/UK/2021/17362","village":null,"city":"Hubballi","district":"Amritsar Rural","state":"Uttarakhand","stateCode":"UK","lat":31.9201,"lng":77.09632,"yearsExperience":8,"languages":["hi"],"available":true},{"id":"paravet-uk84","type":"paravet","name":"Dr. Kavita Kaur","phone":"917055411348","email":"kavita.kaur60@vetmail.in","qualification":"Diploma in Animal Husbandry (DAH)","college":"IVRI Bareilly","licenseBody":"State Animal Husbandry Dept","registrationNumber":"PV/UK/2023/20434","village":"Chandpur Khurd","city":"Agra","district":"Madurai","state":"Uttarakhand","stateCode":"UK","lat":29.58584,"lng":78.24828,"yearsExperience":8,"languages":["hi","en"],"available":true},{"id":"paravet-uk85","type":"paravet","name":"Dr. Ashok Yadav","phone":"918482240651","email":"ashok.yadav56@vetmail.in","qualification":"Diploma in Animal Husbandry (DAH)","college":"Assam Agricultural University","licenseBody":"State Animal Husbandry Dept","registrationNumber":"PV/UK/2012/92029","village":"Kishanpur Kalan","city":"Amritsar","district":"Patna Rural","state":"Uttarakhand","stateCode":"UK","lat":30.49409,"lng":77.30356,"yearsExperience":22,"languages":["hi","en"],"available":true},{"id":"vet-uk86","type":"vet","name":"Dr. Pooja Patel","phone":"916106398442","email":"pooja.patel43@vetmail.in","qualification":"BVSc & AH","college":"IVRI Bareilly","licenseBody":"Veterinary Council of India","registrationNumber":"VCI/UK/2014/81466","village":null,"city":"Ahmedabad","district":"Pune","state":"Uttarakhand","stateCode":"UK","lat":28.36127,"lng":77.36449,"yearsExperience":1,"languages":["hi","en"],"available":true},{"id":"paravet-uk87","type":"paravet","name":"Dr. Suresh Thakur","phone":"916712442299","email":"suresh.thakur78@vetmail.in","qualification":"NDDB AI Technician + Animal Health","college":"TANUVAS Chennai","licenseBody":"State Animal Husbandry Dept","registrationNumber":"PV/UK/2022/75063","village":"Bharatpur","city":"Ahmedabad","district":"Varanasi","state":"Uttarakhand","stateCode":"UK","lat":28.52774,"lng":79.31687,"yearsExperience":20,"languages":["hi"],"available":true},{"id":"vet-uk88","type":"vet","name":"Dr. Arun Pandey","phone":"916674277385","email":"arun.pandey19@vetmail.in","qualification":"BVSc & AH, MVSc (Medicine)","college":"Rajasthan University of Veterinary Sciences","licenseBody":"Veterinary Council of India","registrationNumber":"VCI/UK/2013/24354","village":"Devgarh Khurd","city":"Indore","district":"Ranchi","state":"Uttarakhand","stateCode":"UK","lat":31.78434,"lng":80.78918,"yearsExperience":14,"languages":["hi"],"available":true},{"id":"paravet-uk89","type":"paravet","name":"Dr. Anita Kaur","phone":"917340036484","email":"anita.kaur50@vetmail.in","qualification":"BVSc & AH (Paravet extension)","college":"Kerala Veterinary University","licenseBody":"State Animal Husbandry Dept","registrationNumber":"PV/UK/2015/31453","village":"Govindpur","city":"Jaipur","district":"Meerut District","state":"Uttarakhand","stateCode":"UK","lat":28.26569,"lng":81.08091,"yearsExperience":6,"languages":["hi","en"],"available":true},{"id":"paravet-uk90","type":"paravet","name":"Dr. Suman Saini","phone":"917678397421","email":"suman.saini42@vetmail.in","qualification":"Diploma in Animal Husbandry (DAH)","college":"AAU Anand","licenseBody":"State Animal Husbandry Dept","registrationNumber":"PV/UK/2023/33888","village":"Nagar Nagar","city":"Coimbatore","district":"Agra District","state":"Uttarakhand","stateCode":"UK","lat":29.19263,"lng":77.05693,"yearsExperience":21,"languages":["hi","en"],"available":true},{"id":"paravet-uk91","type":"paravet","name":"Dr. Sunil Pandey","phone":"919217866926","email":"sunil.pandey28@vetmail.in","qualification":"Certificate in Livestock Health Worker (LHW)","college":"DUVASU Mathura","licenseBody":"State Animal Husbandry Dept","registrationNumber":"PV/UK/2010/97095","village":null,"city":"Lucknow","district":"Ranchi","state":"Uttarakhand","stateCode":"UK","lat":32.30074,"lng":78.9968,"yearsExperience":16,"languages":["hi","en"],"available":true},{"id":"paravet-uk92","type":"paravet","name":"Dr. Mohan Reddy","phone":"916524587693","email":"mohan.reddy16@vetmail.in","qualification":"NDDB AI Technician + Animal Health","college":"TANUVAS Chennai","licenseBody":"State Animal Husbandry Dept","registrationNumber":"PV/UK/2020/44478","village":"Bharatpur Kalan","city":"Mysuru","district":"Hubballi Rural","state":"Uttarakhand","stateCode":"UK","lat":28.78553,"lng":80.46328,"yearsExperience":11,"languages":["hi","en"],"available":true},{"id":"vet-uk93","type":"vet","name":"Dr. Harish Pandey","phone":"919438587909","email":"harish.pandey21@vetmail.in","qualification":"BVSc & AH, MVSc (Medicine)","college":"AAU Anand","licenseBody":"Veterinary Council of India","registrationNumber":"VCI/UK/2013/53988","village":"Nagar Kalan","city":"Patna","district":"Ludhiana Rural","state":"Uttarakhand","stateCode":"UK","lat":31.46084,"lng":77.30679,"yearsExperience":3,"languages":["hi","en"],"available":true},{"id":"paravet-uk94","type":"paravet","name":"Dr. Amit Thakur","phone":"919625847694","email":"amit.thakur39@vetmail.in","qualification":"BVSc & AH (Paravet extension)","college":"GBPUAT Pantnagar","licenseBody":"State Animal Husbandry Dept","registrationNumber":"PV/UK/2019/97269","village":"Sitapur Kalan","city":"Ranchi","district":"Agra Rural","state":"Uttarakhand","stateCode":"UK","lat":28.31962,"lng":77.13081,"yearsExperience":16,"languages":["hi","en"],"available":false},{"id":"paravet-uk95","type":"paravet","name":"Dr. Vinod Gupta","phone":"917767400078","email":"vinod.gupta11@vetmail.in","qualification":"BVSc & AH (Paravet extension)","college":"KVK Extension","licenseBody":"State Animal Husbandry Dept","registrationNumber":"PV/UK/2015/75114","village":"Lakhanpur Khurd","city":"Bhopal","district":"Pune","state":"Uttarakhand","stateCode":"UK","lat":32.30701,"lng":79.6728,"yearsExperience":24,"languages":["hi","en"],"available":true},{"id":"vet-uk96","type":"vet","name":"Dr. Sanjay Kumar","phone":"918579435109","email":"sanjay.kumar19@vetmail.in","qualification":"BVSc & AH, MVSc (Surgery)","college":"Kerala Veterinary University","licenseBody":"Veterinary Council of India","registrationNumber":"VCI/UK/2020/75887","village":"Devgarh Kalan","city":"Bhubaneswar","district":"Meerut","state":"Uttarakhand","stateCode":"UK","lat":31.72297,"lng":77.58675,"yearsExperience":20,"languages":["hi"],"available":true},{"id":"paravet-uk97","type":"paravet","name":"Dr. Suresh Sharma","phone":"917043860368","email":"suresh.sharma92@vetmail.in","qualification":"Diploma in Animal Husbandry (DAH)","college":"GBPUAT Pantnagar","licenseBody":"State Animal Husbandry Dept","registrationNumber":"PV/UK/2023/25127","village":"Devgarh Khurd","city":"Varanasi","district":"Rajkot","state":"Uttarakhand","stateCode":"UK","lat":29.96385,"lng":78.35798,"yearsExperience":20,"languages":["hi","en"],"available":true},{"id":"paravet-uk98","type":"paravet","name":"Dr. Suman Thakur","phone":"918748845595","email":"suman.thakur2@vetmail.in","qualification":"Diploma in Animal Husbandry (DAH)","college":"TANUVAS Chennai","licenseBody":"State Animal Husbandry Dept","registrationNumber":"PV/UK/2013/88966","village":"Mohanpur Nagar","city":"Guwahati","district":"Nagpur","state":"Uttarakhand","stateCode":"UK","lat":31.91738,"lng":78.11698,"yearsExperience":23,"languages":["hi","en"],"available":true},{"id":"vet-uk99","type":"vet","name":"Dr. Dinesh Sharma","phone":"919700914641","email":"dinesh.sharma10@vetmail.in","qualification":"BVSc & AH, MVSc (Surgery)","college":"GADVASU Ludhiana","licenseBody":"Veterinary Council of India","registrationNumber":"VCI/UK/2020/21471","village":"Bajpur","city":"Guwahati","district":"Hubballi Rural","state":"Uttarakhand","stateCode":"UK","lat":32.31718,"lng":80.6783,"yearsExperience":7,"languages":["hi","en"],"available":true},{"id":"vet-uk100","type":"vet","name":"Dr. Rekha Kumar","phone":"918362241271","email":"rekha.kumar25@vetmail.in","qualification":"BVSc & AH, MVSc","college":"DUVASU Mathura","licenseBody":"Veterinary Council of India","registrationNumber":"VCI/UK/2011/63500","village":null,"city":"Varanasi","district":"Lucknow District","state":"Uttarakhand","stateCode":"UK","lat":30.10313,"lng":80.55518,"yearsExperience":1,"languages":["hi"],"available":true},{"id":"vet-uk101","type":"vet","name":"Dr. Ravi Pandey","phone":"916996190041","email":"ravi.pandey15@vetmail.in","qualification":"BVSc & AH, MVSc (Surgery)","college":"Assam Agricultural University","licenseBody":"Veterinary Council of India","registrationNumber":"VCI/UK/2015/23018","village":null,"city":"Jaipur","district":"Coimbatore","state":"Uttarakhand","stateCode":"UK","lat":31.95766,"lng":78.75227,"yearsExperience":26,"languages":["hi","en"],"available":true},{"id":"vet-uk102","type":"vet","name":"Dr. Suresh Singh","phone":"916484277697","email":"suresh.singh84@vetmail.in","qualification":"BVSc & AH","college":"KVAFSU Bidar","licenseBody":"Veterinary Council of India","registrationNumber":"VCI/UK/2019/71136","village":"Kheri Nagar","city":"Pune","district":"Kanpur Rural","state":"Uttarakhand","stateCode":"UK","lat":31.85952,"lng":78.97985,"yearsExperience":12,"languages":["hi","en"],"available":true},{"id":"vet-uk103","type":"vet","name":"Dr. Pradeep Yadav","phone":"918234041285","email":"pradeep.yadav28@vetmail.in","qualification":"BVSc & AH, MVSc (Surgery)","college":"AAU Anand","licenseBody":"Veterinary Council of India","registrationNumber":"VCI/UK/2016/21162","village":"Mohanpur Khurd","city":"Raipur","district":"Nagpur District","state":"Uttarakhand","stateCode":"UK","lat":29.24386,"lng":79.81696,"yearsExperience":11,"languages":["hi","en"],"available":true},{"id":"vet-uk104","type":"vet","name":"Dr. Vinod Saini","phone":"916300798201","email":"vinod.saini37@vetmail.in","qualification":"BVSc & AH, MVSc","college":"IVRI Bareilly","licenseBody":"Veterinary Council of India","registrationNumber":"VCI/UK/2021/51685","village":"Rampur","city":"Lucknow","district":"Coimbatore District","state":"Uttarakhand","stateCode":"UK","lat":31.79698,"lng":78.69928,"yearsExperience":13,"languages":["hi"],"available":true},{"id":"paravet-uk105","type":"paravet","name":"Dr. Geeta Joshi","phone":"919606865133","email":"geeta.joshi22@vetmail.in","qualification":"Certificate in Livestock Health Worker (LHW)","college":"AAU Anand","licenseBody":"State Animal Husbandry Dept","registrationNumber":"PV/UK/2018/98954","village":"Devgarh Kalan","city":"Nagpur","district":"Bhopal District","state":"Uttarakhand","stateCode":"UK","lat":28.01366,"lng":79.89928,"yearsExperience":9,"languages":["hi"],"available":true},{"id":"vet-uk106","type":"vet","name":"Ravi Thakur Devi","phone":"916894375754","email":"ravi.thakur77@vetmail.in","qualification":"BVSc & AH, MVSc (Medicine)","college":"OUAT Bhubaneswar","licenseBody":"Veterinary Council of India","registrationNumber":"VCI/UK/2017/53523","village":"Sonpur Kalan","city":"Mysuru","district":"Guwahati District","state":"Uttarakhand","stateCode":"UK","lat":31.03735,"lng":78.21722,"yearsExperience":20,"languages":["hi"],"available":true},{"id":"paravet-uk107","type":"paravet","name":"Dr. Geeta Patel","phone":"919481000631","email":"geeta.patel21@vetmail.in","qualification":"NDDB AI Technician + Animal Health","college":"IVRI Bareilly","licenseBody":"State Animal Husbandry Dept","registrationNumber":"PV/UK/2020/63976","village":"Basantpur Kalan","city":"Raipur","district":"Pune District","state":"Uttarakhand","stateCode":"UK","lat":31.59101,"lng":76.80554,"yearsExperience":9,"languages":["hi"],"available":true},{"id":"vet-uk108","type":"vet","name":"Dr. Mohan Kaur","phone":"918168431105","email":"mohan.kaur42@vetmail.in","qualification":"BVSc & AH, MVSc (Medicine)","college":"LUVAS Hisar","licenseBody":"Veterinary Council of India","registrationNumber":"VCI/UK/2019/23234","village":"Rampur Nagar","city":"Patna","district":"Mysuru Rural","state":"Uttarakhand","stateCode":"UK","lat":31.36966,"lng":78.04774,"yearsExperience":19,"languages":["hi","en"],"available":true},{"id":"paravet-uk109","type":"paravet","name":"Dr. Deepak Reddy","phone":"917366911121","email":"deepak.reddy39@vetmail.in","qualification":"Diploma in Animal Husbandry (DAH)","college":"KVK Extension","licenseBody":"State Animal Husbandry Dept","registrationNumber":"PV/UK/2013/89853","village":null,"city":"Bhubaneswar","district":"Varanasi","state":"Uttarakhand","stateCode":"UK","lat":29.61543,"lng":79.05899,"yearsExperience":9,"languages":["hi"],"available":true},{"id":"vet-uk110","type":"vet","name":"Dr. Priya Choudhary","phone":"917837664706","email":"priya.choudhary93@vetmail.in","qualification":"BVSc & AH","college":"MAFSU Nagpur","licenseBody":"Veterinary Council of India","registrationNumber":"VCI/UK/2021/29984","village":null,"city":"Ahmedabad","district":"Guwahati Rural","state":"Uttarakhand","stateCode":"UK","lat":32.22584,"lng":78.0374,"yearsExperience":15,"languages":["hi","en"],"available":true},{"id":"paravet-uk111","type":"paravet","name":"Dr. Vinod Yadav","phone":"916453405270","email":"vinod.yadav31@vetmail.in","qualification":"NDDB AI Technician + Animal Health","college":"KVK Extension","licenseBody":"State Animal Husbandry Dept","registrationNumber":"PV/UK/2012/53035","village":null,"city":"Bhubaneswar","district":"Pune District","state":"Uttarakhand","stateCode":"UK","lat":30.53076,"lng":78.21156,"yearsExperience":13,"languages":["hi","en"],"available":true},{"id":"vet-uk112","type":"vet","name":"Dr. Arun Saini","phone":"918557534211","email":"arun.saini22@vetmail.in","qualification":"BVSc & AH, MVSc","college":"DUVASU Mathura","licenseBody":"Veterinary Council of India","registrationNumber":"VCI/UK/2021/68632","village":"Gangapur Khurd","city":"Pune","district":"Pune District","state":"Uttarakhand","stateCode":"UK","lat":32.07835,"lng":78.60584,"yearsExperience":13,"languages":["hi","en"],"available":true},{"id":"paravet-uk113","type":"paravet","name":"Anita Thakur Devi","phone":"916077533319","email":"anita.thakur50@vetmail.in","qualification":"NDDB AI Technician + Animal Health","college":"KVK Extension","licenseBody":"State Animal Husbandry Dept","registrationNumber":"PV/UK/2019/43866","village":"Sonpur Khurd","city":"Ludhiana","district":"Jaipur","state":"Uttarakhand","stateCode":"UK","lat":28.19633,"lng":76.96658,"yearsExperience":10,"languages":["hi","en"],"available":true},{"id":"vet-uk114","type":"vet","name":"Dr. Anita Nair","phone":"916678543407","email":"anita.nair72@vetmail.in","qualification":"BVSc & AH, MVSc","college":"MAFSU Nagpur","licenseBody":"Veterinary Council of India","registrationNumber":"VCI/UK/2021/83369","village":null,"city":"Agra","district":"Coimbatore","state":"Uttarakhand","stateCode":"UK","lat":28.60997,"lng":77.13287,"yearsExperience":13,"languages":["hi","en"],"available":true},{"id":"paravet-uk115","type":"paravet","name":"Dr. Lakshmi Saini","phone":"918961663895","email":"lakshmi.saini5@vetmail.in","qualification":"NDDB AI Technician + Animal Health","college":"Kerala Veterinary University","licenseBody":"State Animal Husbandry Dept","registrationNumber":"PV/UK/2019/32884","village":"Khurd Kalan","city":"Madurai","district":"Indore","state":"Uttarakhand","stateCode":"UK","lat":32.09052,"lng":78.62447,"yearsExperience":27,"languages":["hi"],"available":true},{"id":"vet-uk116","type":"vet","name":"Dr. Vijay Devi","phone":"916830697875","email":"vijay.devi59@vetmail.in","qualification":"BVSc & AH, MVSc (Medicine)","college":"KVAFSU Bidar","licenseBody":"Veterinary Council of India","registrationNumber":"VCI/UK/2022/73305","village":"Nagar Nagar","city":"Ranchi","district":"Bhubaneswar","state":"Uttarakhand","stateCode":"UK","lat":30.44364,"lng":78.98891,"yearsExperience":26,"languages":["hi","en"],"available":true},{"id":"paravet-uk117","type":"paravet","name":"Dr. Lakshmi Nair","phone":"917661618551","email":"lakshmi.nair53@vetmail.in","qualification":"BVSc & AH (Paravet extension)","college":"LUVAS Hisar","licenseBody":"State Animal Husbandry Dept","registrationNumber":"PV/UK/2017/11414","village":null,"city":"Surat","district":"Mysuru Rural","state":"Uttarakhand","stateCode":"UK","lat":31.30997,"lng":77.1414,"yearsExperience":7,"languages":["hi"],"available":true},{"id":"vet-uk118","type":"vet","name":"Dr. Harish Joshi","phone":"916391663818","email":"harish.joshi1@vetmail.in","qualification":"BVSc & AH, MVSc (Medicine)","college":"MAFSU Nagpur","licenseBody":"Veterinary Council of India","registrationNumber":"VCI/UK/2022/37234","village":null,"city":"Rajkot","district":"Mysuru","state":"Uttarakhand","stateCode":"UK","lat":31.40161,"lng":79.66579,"yearsExperience":9,"languages":["hi","en"],"available":true},{"id":"paravet-uk119","type":"paravet","name":"Dr. Geeta Reddy","phone":"916164635921","email":"geeta.reddy55@vetmail.in","qualification":"NDDB AI Technician + Animal Health","college":"AAU Anand","licenseBody":"State Animal Husbandry Dept","registrationNumber":"PV/UK/2022/81345","village":"Basantpur Khurd","city":"Indore","district":"Mysuru District","state":"Uttarakhand","stateCode":"UK","lat":30.14332,"lng":80.79557,"yearsExperience":22,"languages":["hi"],"available":true},{"id":"vet-uk120","type":"vet","name":"Dr. Ravi Choudhary","phone":"919528578260","email":"ravi.choudhary19@vetmail.in","qualification":"BVSc & AH, MVSc (Medicine)","college":"MAFSU Nagpur","licenseBody":"Veterinary Council of India","registrationNumber":"VCI/UK/2011/89298","village":"Nandgaon Kalan","city":"Guwahati","district":"Lucknow District","state":"Uttarakhand","stateCode":"UK","lat":29.2203,"lng":81.26293,"yearsExperience":26,"languages":["hi"],"available":true},{"id":"vet-uk121","type":"vet","name":"Kavita Gupta Devi","phone":"919896750927","email":"kavita.gupta84@vetmail.in","qualification":"BVSc & AH, MVSc (Medicine)","college":"MAFSU Nagpur","licenseBody":"Veterinary Council of India","registrationNumber":"VCI/UK/2013/35054","village":"Ramnagar Khurd","city":"Patna","district":"Amritsar","state":"Uttarakhand","stateCode":"UK","lat":30.53173,"lng":81.05765,"yearsExperience":25,"languages":["hi","en"],"available":true},{"id":"paravet-uk122","type":"paravet","name":"Dr. Lakshmi Mehta","phone":"917987470460","email":"lakshmi.mehta85@vetmail.in","qualification":"Diploma in Animal Husbandry (DAH)","college":"WBUAFS Kolkata","licenseBody":"State Animal Husbandry Dept","registrationNumber":"PV/UK/2019/48494","village":null,"city":"Jaipur","district":"Kanpur District","state":"Uttarakhand","stateCode":"UK","lat":31.30195,"lng":78.08979,"yearsExperience":11,"languages":["hi","en"],"available":true},{"id":"vet-uk123","type":"vet","name":"Dr. Pooja Sharma","phone":"917719290293","email":"pooja.sharma49@vetmail.in","qualification":"BVSc & AH, MVSc","college":"GBPUAT Pantnagar","licenseBody":"Veterinary Council of India","registrationNumber":"VCI/UK/2016/48694","village":"Patti Kalan","city":"Madurai","district":"Surat","state":"Uttarakhand","stateCode":"UK","lat":29.87188,"lng":77.22158,"yearsExperience":13,"languages":["hi","en"],"available":true},{"id":"paravet-uk124","type":"paravet","name":"Dr. Sunita Devi","phone":"919114837653","email":"sunita.devi72@vetmail.in","qualification":"Diploma in Animal Husbandry (DAH)","college":"GADVASU Ludhiana","licenseBody":"State Animal Husbandry Dept","registrationNumber":"PV/UK/2019/61930","village":"Mohanpur Nagar","city":"Nagpur","district":"Jaipur","state":"Uttarakhand","stateCode":"UK","lat":31.93867,"lng":80.11919,"yearsExperience":15,"languages":["hi","en"],"available":true},{"id":"paravet-uk125","type":"paravet","name":"Dr. Deepak Saini","phone":"916494996390","email":"deepak.saini24@vetmail.in","qualification":"Diploma in Animal Husbandry (DAH)","college":"IVRI Bareilly","licenseBody":"State Animal Husbandry Dept","registrationNumber":"PV/UK/2012/74986","village":"Ramnagar Nagar","city":"Lucknow","district":"Nagpur Rural","state":"Uttarakhand","stateCode":"UK","lat":28.09239,"lng":77.94415,"yearsExperience":27,"languages":["hi","en"],"available":true},{"id":"paravet-uk126","type":"paravet","name":"Mohan Joshi Devi","phone":"916419177553","email":"mohan.joshi3@vetmail.in","qualification":"BVSc & AH (Paravet extension)","college":"KVK Extension","licenseBody":"State Animal Husbandry Dept","registrationNumber":"PV/UK/2017/24671","village":null,"city":"Jaipur","district":"Madurai District","state":"Uttarakhand","stateCode":"UK","lat":28.57456,"lng":77.65884,"yearsExperience":20,"languages":["hi","en"],"available":true},{"id":"paravet-uk127","type":"paravet","name":"Dr. Anita Gupta","phone":"917680548888","email":"anita.gupta86@vetmail.in","qualification":"NDDB AI Technician + Animal Health","college":"WBUAFS Kolkata","licenseBody":"State Animal Husbandry Dept","registrationNumber":"PV/UK/2015/53030","village":"Kheri Nagar","city":"Raipur","district":"Hubballi District","state":"Uttarakhand","stateCode":"UK","lat":29.53847,"lng":79.48976,"yearsExperience":2,"languages":["hi"],"available":true},{"id":"paravet-uk128","type":"paravet","name":"Dr. Radha Devi","phone":"918222472774","email":"radha.devi53@vetmail.in","qualification":"BVSc & AH (Paravet extension)","college":"MAFSU Nagpur","licenseBody":"State Animal Husbandry Dept","registrationNumber":"PV/UK/2019/26229","village":"Bajpur Kalan","city":"Raipur","district":"Guwahati","state":"Uttarakhand","stateCode":"UK","lat":31.97381,"lng":76.93553,"yearsExperience":24,"languages":["hi","en"],"available":true},{"id":"vet-uk129","type":"vet","name":"Dr. Gopal Choudhary","phone":"919756337302","email":"gopal.choudhary34@vetmail.in","qualification":"BVSc & AH, MVSc (Medicine)","college":"GBPUAT Pantnagar","licenseBody":"Veterinary Council of India","registrationNumber":"VCI/UK/2017/38527","village":"Krishnapur Khurd","city":"Ranchi","district":"Coimbatore District","state":"Uttarakhand","stateCode":"UK","lat":28.01709,"lng":80.88295,"yearsExperience":6,"languages":["hi","en"],"available":true},{"id":"paravet-uk130","type":"paravet","name":"Dr. Rekha Saini","phone":"918291625810","email":"rekha.saini23@vetmail.in","qualification":"BVSc & AH (Paravet extension)","college":"GADVASU Ludhiana","licenseBody":"State Animal Husbandry Dept","registrationNumber":"PV/UK/2015/19650","village":"Kishanpur","city":"Patna","district":"Meerut Rural","state":"Uttarakhand","stateCode":"UK","lat":31.91835,"lng":77.22129,"yearsExperience":13,"languages":["hi","en"],"available":true},{"id":"paravet-uk131","type":"paravet","name":"Dr. Sanjay Kaur","phone":"916248042264","email":"sanjay.kaur36@vetmail.in","qualification":"BVSc & AH (Paravet extension)","college":"KVK Extension","licenseBody":"State Animal Husbandry Dept","registrationNumber":"PV/UK/2014/60166","village":null,"city":"Jaipur","district":"Raipur Rural","state":"Uttarakhand","stateCode":"UK","lat":31.4567,"lng":78.04688,"yearsExperience":1,"languages":["hi","en"],"available":true},{"id":"vet-uk132","type":"vet","name":"Dr. Rekha Kumar","phone":"919321179813","email":"rekha.kumar77@vetmail.in","qualification":"BVSc & AH","college":"MAFSU Nagpur","licenseBody":"Veterinary Council of India","registrationNumber":"VCI/UK/2022/91199","village":"Patti Kalan","city":"Lucknow","district":"Mysuru","state":"Uttarakhand","stateCode":"UK","lat":31.8297,"lng":80.93451,"yearsExperience":9,"languages":["hi"],"available":true},{"id":"vet-uk133","type":"vet","name":"Dr. Ashok Pandey","phone":"916428938831","email":"ashok.pandey64@vetmail.in","qualification":"BVSc & AH, MVSc","college":"Assam Agricultural University","licenseBody":"Veterinary Council of India","registrationNumber":"VCI/UK/2021/48763","village":"Bajpur Khurd","city":"Hubballi","district":"Rajkot","state":"Uttarakhand","stateCode":"UK","lat":29.90915,"lng":80.82868,"yearsExperience":26,"languages":["hi","en"],"available":true},{"id":"vet-uk134","type":"vet","name":"Dr. Sunil Choudhary","phone":"916321765264","email":"sunil.choudhary66@vetmail.in","qualification":"BVSc & AH, MVSc","college":"Assam Agricultural University","licenseBody":"Veterinary Council of India","registrationNumber":"VCI/UK/2020/84402","village":"Chandpur","city":"Hubballi","district":"Ludhiana","state":"Uttarakhand","stateCode":"UK","lat":28.17582,"lng":80.41521,"yearsExperience":19,"languages":["hi","en"],"available":true},{"id":"paravet-uk135","type":"paravet","name":"Dr. Pradeep Singh","phone":"918224022036","email":"pradeep.singh73@vetmail.in","qualification":"Certificate in Livestock Health Worker (LHW)","college":"IVRI Bareilly","licenseBody":"State Animal Husbandry Dept","registrationNumber":"PV/UK/2014/59909","village":"Bajpur Khurd","city":"Amritsar","district":"Jaipur Rural","state":"Uttarakhand","stateCode":"UK","lat":32.02644,"lng":77.69995,"yearsExperience":17,"languages":["hi"],"available":false},{"id":"paravet-uk136","type":"paravet","name":"Dr. Ashok Reddy","phone":"917173461713","email":"ashok.reddy52@vetmail.in","qualification":"BVSc & AH (Paravet extension)","college":"IVRI Bareilly","licenseBody":"State Animal Husbandry Dept","registrationNumber":"PV/UK/2018/97045","village":"Shivpuri Khurd","city":"Varanasi","district":"Bhopal Rural","state":"Uttarakhand","stateCode":"UK","lat":30.77144,"lng":77.9862,"yearsExperience":6,"languages":["hi","en"],"available":true},{"id":"vet-uk137","type":"vet","name":"Dr. Sunil Devi","phone":"919145822264","email":"sunil.devi6@vetmail.in","qualification":"BVSc & AH, MVSc (Medicine)","college":"TANUVAS Chennai","licenseBody":"Veterinary Council of India","registrationNumber":"VCI/UK/2018/11887","village":null,"city":"Meerut","district":"Agra District","state":"Uttarakhand","stateCode":"UK","lat":31.37616,"lng":77.20064,"yearsExperience":22,"languages":["hi","en"],"available":true},{"id":"paravet-uk138","type":"paravet","name":"Dr. Meena Saini","phone":"919819962664","email":"meena.saini62@vetmail.in","qualification":"BVSc & AH (Paravet extension)","college":"IVRI Bareilly","licenseBody":"State Animal Husbandry Dept","registrationNumber":"PV/UK/2021/74485","village":null,"city":"Ludhiana","district":"Bhubaneswar Rural","state":"Uttarakhand","stateCode":"UK","lat":29.61113,"lng":80.85783,"yearsExperience":13,"languages":["hi","en"],"available":true},{"id":"vet-uk139","type":"vet","name":"Dr. Ashok Das","phone":"917885739350","email":"ashok.das62@vetmail.in","qualification":"BVSc & AH, MVSc","college":"DUVASU Mathura","licenseBody":"Veterinary Council of India","registrationNumber":"VCI/UK/2016/94923","village":null,"city":"Mysuru","district":"Raipur","state":"Uttarakhand","stateCode":"UK","lat":31.75593,"lng":78.32186,"yearsExperience":6,"languages":["hi","en"],"available":true},{"id":"paravet-uk140","type":"paravet","name":"Dr. Ravi Singh","phone":"918939030425","email":"ravi.singh20@vetmail.in","qualification":"Diploma in Animal Husbandry (DAH)","college":"IVRI Bareilly","licenseBody":"State Animal Husbandry Dept","registrationNumber":"PV/UK/2022/26986","village":"Govindpur","city":"Nagpur","district":"Surat Rural","state":"Uttarakhand","stateCode":"UK","lat":29.29616,"lng":78.57563,"yearsExperience":9,"languages":["hi"],"available":true},{"id":"vet-uk141","type":"vet","name":"Dr. Priya Pandey","phone":"917149472430","email":"priya.pandey61@vetmail.in","qualification":"BVSc & AH, MVSc","college":"GBPUAT Pantnagar","licenseBody":"Veterinary Council of India","registrationNumber":"VCI/UK/2017/77578","village":"Kheri Nagar","city":"Surat","district":"Bhopal District","state":"Uttarakhand","stateCode":"UK","lat":31.37501,"lng":80.07978,"yearsExperience":2,"languages":["hi"],"available":true},{"id":"vet-uk142","type":"vet","name":"Dr. Priya Verma","phone":"916458668285","email":"priya.verma84@vetmail.in","qualification":"BVSc & AH, MVSc (Surgery)","college":"Assam Agricultural University","licenseBody":"Veterinary Council of India","registrationNumber":"VCI/UK/2010/24513","village":"Govindpur Nagar","city":"Meerut","district":"Kanpur","state":"Uttarakhand","stateCode":"UK","lat":28.10664,"lng":79.55572,"yearsExperience":27,"languages":["hi","en"],"available":false},{"id":"vet-uk143","type":"vet","name":"Dr. Arun Nair","phone":"917039166276","email":"arun.nair18@vetmail.in","qualification":"BVSc & AH, MVSc","college":"AAU Anand","licenseBody":"Veterinary Council of India","registrationNumber":"VCI/UK/2020/41381","village":"Ramnagar Khurd","city":"Pune","district":"Ranchi District","state":"Uttarakhand","stateCode":"UK","lat":29.29557,"lng":77.86613,"yearsExperience":23,"languages":["hi","en"],"available":true},{"id":"paravet-uk144","type":"paravet","name":"Rajesh Pandey Devi","phone":"919604382012","email":"rajesh.pandey77@vetmail.in","qualification":"NDDB AI Technician + Animal Health","college":"GADVASU Ludhiana","licenseBody":"State Animal Husbandry Dept","registrationNumber":"PV/UK/2021/98912","village":"Ramnagar","city":"Kanpur","district":"Bhubaneswar Rural","state":"Uttarakhand","stateCode":"UK","lat":31.7006,"lng":76.98027,"yearsExperience":26,"languages":["hi","en"],"available":true},{"id":"paravet-uk145","type":"paravet","name":"Dr. Suman Das","phone":"919931029716","email":"suman.das47@vetmail.in","qualification":"NDDB AI Technician + Animal Health","college":"OUAT Bhubaneswar","licenseBody":"State Animal Husbandry Dept","registrationNumber":"PV/UK/2021/95983","village":"Lakhanpur Kalan","city":"Ahmedabad","district":"Raipur District","state":"Uttarakhand","stateCode":"UK","lat":27.96145,"lng":79.69612,"yearsExperience":15,"languages":["hi","en"],"available":true},{"id":"vet-uk146","type":"vet","name":"Dr. Gopal Devi","phone":"916816986184","email":"gopal.devi76@vetmail.in","qualification":"BVSc & AH, MVSc (Medicine)","college":"GBPUAT Pantnagar","licenseBody":"Veterinary Council of India","registrationNumber":"VCI/UK/2015/88469","village":"Chandpur Khurd","city":"Bhopal","district":"Meerut","state":"Uttarakhand","stateCode":"UK","lat":30.04019,"lng":78.9982,"yearsExperience":21,"languages":["hi","en"],"available":true},{"id":"vet-uk147","type":"vet","name":"Dr. Suresh Sharma","phone":"916018647837","email":"suresh.sharma29@vetmail.in","qualification":"BVSc & AH, MVSc","college":"Rajasthan University of Veterinary Sciences","licenseBody":"Veterinary Council of India","registrationNumber":"VCI/UK/2016/56767","village":null,"city":"Ludhiana","district":"Coimbatore Rural","state":"Uttarakhand","stateCode":"UK","lat":30.58965,"lng":77.02039,"yearsExperience":21,"languages":["hi","en"],"available":false},{"id":"paravet-uk148","type":"paravet","name":"Dr. Ravi Thakur","phone":"917118276806","email":"ravi.thakur9@vetmail.in","qualification":"NDDB AI Technician + Animal Health","college":"MAFSU Nagpur","licenseBody":"State Animal Husbandry Dept","registrationNumber":"PV/UK/2015/56836","village":"Sultanpur Kalan","city":"Ahmedabad","district":"Hubballi","state":"Uttarakhand","stateCode":"UK","lat":32.10835,"lng":80.85595,"yearsExperience":24,"languages":["hi","en"],"available":true},{"id":"vet-uk149","type":"vet","name":"Dr. Sarita Choudhary","phone":"917728285261","email":"sarita.choudhary31@vetmail.in","qualification":"BVSc & AH","college":"Assam Agricultural University","licenseBody":"Veterinary Council of India","registrationNumber":"VCI/UK/2021/22073","village":"Basantpur","city":"Surat","district":"Agra District","state":"Uttarakhand","stateCode":"UK","lat":30.26552,"lng":78.48288,"yearsExperience":26,"languages":["hi","en"],"available":true},{"id":"vet-uk150","type":"vet","name":"Dr. Rekha Kaur","phone":"919129123363","email":"rekha.kaur63@vetmail.in","qualification":"BVSc & AH","college":"WBUAFS Kolkata","licenseBody":"Veterinary Council of India","registrationNumber":"VCI/UK/2023/15387","village":"Lakhanpur Nagar","city":"Kanpur","district":"Mysuru District","state":"Uttarakhand","stateCode":"UK","lat":28.66825,"lng":81.01649,"yearsExperience":27,"languages":["hi","en"],"available":true},{"id":"vet-uk151","type":"vet","name":"Lakshmi Kaur Devi","phone":"916146962699","email":"lakshmi.kaur29@vetmail.in","qualification":"BVSc & AH","college":"WBUAFS Kolkata","licenseBody":"Veterinary Council of India","registrationNumber":"VCI/UK/2010/51550","village":"Mohanpur Kalan","city":"Hubballi","district":"Rajkot","state":"Uttarakhand","stateCode":"UK","lat":30.71312,"lng":81.0517,"yearsExperience":18,"languages":["hi","en"],"available":true},{"id":"vet-uk152","type":"vet","name":"Dr. Vijay Mishra","phone":"919890966549","email":"vijay.mishra6@vetmail.in","qualification":"BVSc & AH","college":"Kerala Veterinary University","licenseBody":"Veterinary Council of India","registrationNumber":"VCI/UK/2014/32468","village":"Mohanpur","city":"Pune","district":"Raipur District","state":"Uttarakhand","stateCode":"UK","lat":30.24879,"lng":78.49172,"yearsExperience":14,"languages":["hi","en"],"available":true},{"id":"vet-uk153","type":"vet","name":"Dr. Radha Kumar","phone":"919585154120","email":"radha.kumar48@vetmail.in","qualification":"BVSc & AH","college":"DUVASU Mathura","licenseBody":"Veterinary Council of India","registrationNumber":"VCI/UK/2023/91642","village":"Shivpuri Khurd","city":"Ludhiana","district":"Bhopal Rural","state":"Uttarakhand","stateCode":"UK","lat":29.99596,"lng":80.49756,"yearsExperience":27,"languages":["hi","en"],"available":true},{"id":"vet-uk154","type":"vet","name":"Dr. Pooja Joshi","phone":"916812971113","email":"pooja.joshi22@vetmail.in","qualification":"BVSc & AH, MVSc","college":"WBUAFS Kolkata","licenseBody":"Veterinary Council of India","registrationNumber":"VCI/UK/2012/40306","village":null,"city":"Guwahati","district":"Madurai District","state":"Uttarakhand","stateCode":"UK","lat":29.55209,"lng":80.69928,"yearsExperience":16,"languages":["hi","en"],"available":true},{"id":"vet-uk155","type":"vet","name":"Dr. Sarita Mehta","phone":"916570821169","email":"sarita.mehta7@vetmail.in","qualification":"BVSc & AH, MVSc (Medicine)","college":"OUAT Bhubaneswar","licenseBody":"Veterinary Council of India","registrationNumber":"VCI/UK/2023/67724","village":null,"city":"Nagpur","district":"Hubballi Rural","state":"Uttarakhand","stateCode":"UK","lat":28.75822,"lng":77.83456,"yearsExperience":21,"languages":["hi","en"],"available":true},{"id":"vet-uk156","type":"vet","name":"Dr. Meena Gupta","phone":"916049800004","email":"meena.gupta47@vetmail.in","qualification":"BVSc & AH, MVSc","college":"LUVAS Hisar","licenseBody":"Veterinary Council of India","registrationNumber":"VCI/UK/2011/50903","village":"Nagar Nagar","city":"Hubballi","district":"Bhopal District","state":"Uttarakhand","stateCode":"UK","lat":30.1956,"lng":78.57931,"yearsExperience":17,"languages":["hi","en"],"available":true},{"id":"paravet-uk157","type":"paravet","name":"Dr. Rekha Mishra","phone":"917296121206","email":"rekha.mishra17@vetmail.in","qualification":"Diploma in Animal Husbandry (DAH)","college":"Assam Agricultural University","licenseBody":"State Animal Husbandry Dept","registrationNumber":"PV/UK/2023/92744","village":"Sonpur Khurd","city":"Guwahati","district":"Rajkot District","state":"Uttarakhand","stateCode":"UK","lat":31.70423,"lng":80.87193,"yearsExperience":8,"languages":["hi"],"available":true},{"id":"paravet-uk158","type":"paravet","name":"Dr. Rajesh Das","phone":"916672405900","email":"rajesh.das66@vetmail.in","qualification":"Certificate in Livestock Health Worker (LHW)","college":"Kerala Veterinary University","licenseBody":"State Animal Husbandry Dept","registrationNumber":"PV/UK/2017/78648","village":"Nagar Khurd","city":"Raipur","district":"Ahmedabad Rural","state":"Uttarakhand","stateCode":"UK","lat":31.78087,"lng":77.18566,"yearsExperience":10,"languages":["hi"],"available":true},{"id":"paravet-uk159","type":"paravet","name":"Dr. Vinod Reddy","phone":"918624263303","email":"vinod.reddy34@vetmail.in","qualification":"BVSc & AH (Paravet extension)","college":"KVK Extension","licenseBody":"State Animal Husbandry Dept","registrationNumber":"PV/UK/2013/71451","village":"Basantpur Nagar","city":"Indore","district":"Amritsar Rural","state":"Uttarakhand","stateCode":"UK","lat":31.53966,"lng":77.63531,"yearsExperience":19,"languages":["hi","en"],"available":true},{"id":"vet-uk160","type":"vet","name":"Neha Rao Devi","phone":"918767952900","email":"neha.rao80@vetmail.in","qualification":"BVSc & AH, MVSc (Surgery)","college":"OUAT Bhubaneswar","licenseBody":"Veterinary Council of India","registrationNumber":"VCI/UK/2014/88256","village":"Shivpuri Khurd","city":"Amritsar","district":"Patna District","state":"Uttarakhand","stateCode":"UK","lat":31.07695,"lng":77.67633,"yearsExperience":2,"languages":["hi"],"available":true},{"id":"vet-uk161","type":"vet","name":"Dr. Meena Yadav","phone":"917548264488","email":"meena.yadav34@vetmail.in","qualification":"BVSc & AH, MVSc (Medicine)","college":"TANUVAS Chennai","licenseBody":"Veterinary Council of India","registrationNumber":"VCI/UK/2018/69293","village":"Kishanpur Kalan","city":"Mysuru","district":"Varanasi Rural","state":"Uttarakhand","stateCode":"UK","lat":28.74463,"lng":80.50499,"yearsExperience":4,"languages":["hi","en"],"available":true},{"id":"vet-uk162","type":"vet","name":"Dr. Dinesh Yadav","phone":"918505894368","email":"dinesh.yadav52@vetmail.in","qualification":"BVSc & AH, MVSc (Medicine)","college":"Assam Agricultural University","licenseBody":"Veterinary Council of India","registrationNumber":"VCI/UK/2020/72198","village":"Kishanpur","city":"Indore","district":"Hubballi District","state":"Uttarakhand","stateCode":"UK","lat":31.49489,"lng":76.78855,"yearsExperience":19,"languages":["hi"],"available":true},{"id":"vet-uk163","type":"vet","name":"Dr. Vinod Verma","phone":"918140331220","email":"vinod.verma66@vetmail.in","qualification":"BVSc & AH, MVSc","college":"GADVASU Ludhiana","licenseBody":"Veterinary Council of India","registrationNumber":"VCI/UK/2020/44307","village":"Sonpur","city":"Mysuru","district":"Ludhiana District","state":"Uttarakhand","stateCode":"UK","lat":32.10148,"lng":80.59894,"yearsExperience":3,"languages":["hi"],"available":true},{"id":"paravet-uk164","type":"paravet","name":"Dr. Radha Sharma","phone":"916912550170","email":"radha.sharma18@vetmail.in","qualification":"BVSc & AH (Paravet extension)","college":"IVRI Bareilly","licenseBody":"State Animal Husbandry Dept","registrationNumber":"PV/UK/2020/65212","village":"Krishnapur","city":"Patna","district":"Indore","state":"Uttarakhand","stateCode":"UK","lat":28.51453,"lng":79.94884,"yearsExperience":2,"languages":["hi","en"],"available":true},{"id":"vet-uk165","type":"vet","name":"Dr. Sunil Das","phone":"916902081377","email":"sunil.das19@vetmail.in","qualification":"BVSc & AH, MVSc","college":"TANUVAS Chennai","licenseBody":"Veterinary Council of India","registrationNumber":"VCI/UK/2022/35094","village":"Lakhanpur Nagar","city":"Rajkot","district":"Mysuru Rural","state":"Uttarakhand","stateCode":"UK","lat":31.71449,"lng":80.27393,"yearsExperience":19,"languages":["hi","en"],"available":true},{"id":"vet-uk166","type":"vet","name":"Mohan Saini Devi","phone":"919518298483","email":"mohan.saini61@vetmail.in","qualification":"BVSc & AH, MVSc (Medicine)","college":"Bihar Veterinary College","licenseBody":"Veterinary Council of India","registrationNumber":"VCI/UK/2013/48618","village":null,"city":"Guwahati","district":"Bhopal Rural","state":"Uttarakhand","stateCode":"UK","lat":30.31856,"lng":78.11749,"yearsExperience":4,"languages":["hi","en"],"available":true},{"id":"vet-uk167","type":"vet","name":"Dr. Priya Kumar","phone":"918484784250","email":"priya.kumar4@vetmail.in","qualification":"BVSc & AH","college":"KVAFSU Bidar","licenseBody":"Veterinary Council of India","registrationNumber":"VCI/UK/2010/62551","village":null,"city":"Nagpur","district":"Agra District","state":"Uttarakhand","stateCode":"UK","lat":28.36944,"lng":77.29594,"yearsExperience":21,"languages":["hi"],"available":true},{"id":"paravet-uk168","type":"paravet","name":"Dr. Rajesh Yadav","phone":"916420296772","email":"rajesh.yadav7@vetmail.in","qualification":"NDDB AI Technician + Animal Health","college":"GADVASU Ludhiana","licenseBody":"State Animal Husbandry Dept","registrationNumber":"PV/UK/2010/24243","village":"Devgarh Khurd","city":"Surat","district":"Ahmedabad","state":"Uttarakhand","stateCode":"UK","lat":28.35123,"lng":78.81733,"yearsExperience":6,"languages":["hi","en"],"available":true},{"id":"vet-uk169","type":"vet","name":"Dr. Geeta Singh","phone":"919791081333","email":"geeta.singh5@vetmail.in","qualification":"BVSc & AH, MVSc","college":"Assam Agricultural University","licenseBody":"Veterinary Council of India","registrationNumber":"VCI/UK/2014/14844","village":"Kalan Kalan","city":"Hubballi","district":"Raipur","state":"Uttarakhand","stateCode":"UK","lat":28.67761,"lng":78.87501,"yearsExperience":11,"languages":["hi","en"],"available":true},{"id":"paravet-uk170","type":"paravet","name":"Rekha Pandey Devi","phone":"916250956540","email":"rekha.pandey22@vetmail.in","qualification":"Diploma in Animal Husbandry (DAH)","college":"Bihar Veterinary College","licenseBody":"State Animal Husbandry Dept","registrationNumber":"PV/UK/2011/62409","village":null,"city":"Rajkot","district":"Madurai Rural","state":"Uttarakhand","stateCode":"UK","lat":29.1094,"lng":78.56377,"yearsExperience":19,"languages":["hi","en"],"available":true},{"id":"paravet-uk171","type":"paravet","name":"Dr. Vijay Verma","phone":"918163987910","email":"vijay.verma14@vetmail.in","qualification":"BVSc & AH (Paravet extension)","college":"GBPUAT Pantnagar","licenseBody":"State Animal Husbandry Dept","registrationNumber":"PV/UK/2015/95895","village":"Bajpur Kalan","city":"Kanpur","district":"Mysuru","state":"Uttarakhand","stateCode":"UK","lat":31.02342,"lng":79.78931,"yearsExperience":18,"languages":["hi"],"available":true},{"id":"paravet-uk172","type":"paravet","name":"Dr. Sanjay Devi","phone":"916253914269","email":"sanjay.devi79@vetmail.in","qualification":"Certificate in Livestock Health Worker (LHW)","college":"State AH Department Training","licenseBody":"State Animal Husbandry Dept","registrationNumber":"PV/UK/2010/44209","village":null,"city":"Amritsar","district":"Hubballi Rural","state":"Uttarakhand","stateCode":"UK","lat":32.10124,"lng":77.69297,"yearsExperience":1,"languages":["hi","en"],"available":true},{"id":"paravet-uk173","type":"paravet","name":"Dr. Kavita Reddy","phone":"916366786332","email":"kavita.reddy66@vetmail.in","qualification":"NDDB AI Technician + Animal Health","college":"Bihar Veterinary College","licenseBody":"State Animal Husbandry Dept","registrationNumber":"PV/UK/2022/79169","village":"Patti Kalan","city":"Patna","district":"Bhubaneswar District","state":"Uttarakhand","stateCode":"UK","lat":30.12752,"lng":78.56372,"yearsExperience":20,"languages":["hi","en"],"available":true},{"id":"paravet-uk174","type":"paravet","name":"Sunita Sharma Devi","phone":"916601012229","email":"sunita.sharma49@vetmail.in","qualification":"Diploma in Animal Husbandry (DAH)","college":"Kerala Veterinary University","licenseBody":"State Animal Husbandry Dept","registrationNumber":"PV/UK/2021/43428","village":"Sultanpur Nagar","city":"Indore","district":"Coimbatore Rural","state":"Uttarakhand","stateCode":"UK","lat":28.93632,"lng":79.74399,"yearsExperience":10,"languages":["hi"],"available":true},{"id":"vet-uk175","type":"vet","name":"Dr. Sarita Rao","phone":"916418605920","email":"sarita.rao62@vetmail.in","qualification":"BVSc & AH","college":"GBPUAT Pantnagar","licenseBody":"Veterinary Council of India","registrationNumber":"VCI/UK/2022/12582","village":null,"city":"Bhopal","district":"Jaipur","state":"Uttarakhand","stateCode":"UK","lat":32.00973,"lng":78.51138,"yearsExperience":18,"languages":["hi"],"available":true},{"id":"paravet-uk176","type":"paravet","name":"Dr. Mohan Verma","phone":"917889238872","email":"mohan.verma40@vetmail.in","qualification":"NDDB AI Technician + Animal Health","college":"GADVASU Ludhiana","licenseBody":"State Animal Husbandry Dept","registrationNumber":"PV/UK/2014/69490","village":"Nandgaon Nagar","city":"Hubballi","district":"Pune","state":"Uttarakhand","stateCode":"UK","lat":28.65678,"lng":77.25388,"yearsExperience":6,"languages":["hi"],"available":true},{"id":"paravet-uk177","type":"paravet","name":"Dr. Pooja Devi","phone":"918488066100","email":"pooja.devi14@vetmail.in","qualification":"NDDB AI Technician + Animal Health","college":"KVK Extension","licenseBody":"State Animal Husbandry Dept","registrationNumber":"PV/UK/2012/74381","village":null,"city":"Agra","district":"Ludhiana District","state":"Uttarakhand","stateCode":"UK","lat":31.05836,"lng":78.34633,"yearsExperience":17,"languages":["hi"],"available":true},{"id":"paravet-uk178","type":"paravet","name":"Dr. Amit Singh","phone":"917026389634","email":"amit.singh36@vetmail.in","qualification":"Certificate in Livestock Health Worker (LHW)","college":"WBUAFS Kolkata","licenseBody":"State Animal Husbandry Dept","registrationNumber":"PV/UK/2014/63256","village":null,"city":"Ludhiana","district":"Jaipur District","state":"Uttarakhand","stateCode":"UK","lat":28.80419,"lng":79.31954,"yearsExperience":28,"languages":["hi","en"],"available":true},{"id":"vet-uk179","type":"vet","name":"Dr. Anita Patel","phone":"918700440559","email":"anita.patel93@vetmail.in","qualification":"BVSc & AH, MVSc (Medicine)","college":"WBUAFS Kolkata","licenseBody":"Veterinary Council of India","registrationNumber":"VCI/UK/2018/78510","village":null,"city":"Varanasi","district":"Raipur","state":"Uttarakhand","stateCode":"UK","lat":27.82918,"lng":76.82146,"yearsExperience":11,"languages":["hi"],"available":true},{"id":"paravet-uk180","type":"paravet","name":"Dr. Mohan Kaur","phone":"918920332611","email":"mohan.kaur78@vetmail.in","qualification":"Diploma in Animal Husbandry (DAH)","college":"MAFSU Nagpur","licenseBody":"State Animal Husbandry Dept","registrationNumber":"PV/UK/2012/20870","village":null,"city":"Varanasi","district":"Mysuru District","state":"Uttarakhand","stateCode":"UK","lat":29.73034,"lng":79.99091,"yearsExperience":2,"languages":["hi","en"],"available":true},{"id":"paravet-uk181","type":"paravet","name":"Dr. Suman Nair","phone":"919749229742","email":"suman.nair81@vetmail.in","qualification":"BVSc & AH (Paravet extension)","college":"KVK Extension","licenseBody":"State Animal Husbandry Dept","registrationNumber":"PV/UK/2013/88943","village":"Shivpuri Kalan","city":"Nagpur","district":"Ranchi","state":"Uttarakhand","stateCode":"UK","lat":30.8054,"lng":79.55572,"yearsExperience":20,"languages":["hi","en"],"available":true},{"id":"paravet-uk182","type":"paravet","name":"Dr. Manoj Das","phone":"916165771194","email":"manoj.das3@vetmail.in","qualification":"BVSc & AH (Paravet extension)","college":"Assam Agricultural University","licenseBody":"State Animal Husbandry Dept","registrationNumber":"PV/UK/2011/87117","village":"Nandgaon","city":"Kanpur","district":"Raipur District","state":"Uttarakhand","stateCode":"UK","lat":31.89702,"lng":77.33834,"yearsExperience":23,"languages":["hi"],"available":true},{"id":"paravet-uk183","type":"paravet","name":"Dr. Geeta Gupta","phone":"916542191631","email":"geeta.gupta75@vetmail.in","qualification":"Certificate in Livestock Health Worker (LHW)","college":"KVK Extension","licenseBody":"State Animal Husbandry Dept","registrationNumber":"PV/UK/2010/97680","village":"Govindpur Khurd","city":"Indore","district":"Patna District","state":"Uttarakhand","stateCode":"UK","lat":32.20372,"lng":77.29395,"yearsExperience":15,"languages":["hi","en"],"available":true},{"id":"paravet-uk184","type":"paravet","name":"Dr. Priya Joshi","phone":"918197701887","email":"priya.joshi15@vetmail.in","qualification":"Diploma in Animal Husbandry (DAH)","college":"MAFSU Nagpur","licenseBody":"State Animal Husbandry Dept","registrationNumber":"PV/UK/2023/80911","village":"Devgarh Kalan","city":"Ludhiana","district":"Ludhiana District","state":"Uttarakhand","stateCode":"UK","lat":32.26311,"lng":79.69631,"yearsExperience":16,"languages":["hi","en"],"available":true},{"id":"paravet-uk185","type":"paravet","name":"Dr. Mohan Saini","phone":"918856973535","email":"mohan.saini31@vetmail.in","qualification":"Diploma in Animal Husbandry (DAH)","college":"WBUAFS Kolkata","licenseBody":"State Animal Husbandry Dept","registrationNumber":"PV/UK/2014/33725","village":null,"city":"Agra","district":"Bhopal District","state":"Uttarakhand","stateCode":"UK","lat":30.21014,"lng":76.7996,"yearsExperience":4,"languages":["hi","en"],"available":true},{"id":"paravet-uk186","type":"paravet","name":"Dr. Geeta Rao","phone":"918161608994","email":"geeta.rao87@vetmail.in","qualification":"BVSc & AH (Paravet extension)","college":"GADVASU Ludhiana","licenseBody":"State Animal Husbandry Dept","registrationNumber":"PV/UK/2019/68143","village":null,"city":"Surat","district":"Raipur Rural","state":"Uttarakhand","stateCode":"UK","lat":29.35242,"lng":76.98378,"yearsExperience":7,"languages":["hi"],"available":true},{"id":"vet-uk187","type":"vet","name":"Dr. Lakshmi Nair","phone":"917283963542","email":"lakshmi.nair17@vetmail.in","qualification":"BVSc & AH, MVSc","college":"MAFSU Nagpur","licenseBody":"Veterinary Council of India","registrationNumber":"VCI/UK/2017/10435","village":"Basantpur Nagar","city":"Jaipur","district":"Ludhiana Rural","state":"Uttarakhand","stateCode":"UK","lat":31.83679,"lng":77.47214,"yearsExperience":3,"languages":["hi"],"available":true},{"id":"paravet-uk188","type":"paravet","name":"Dr. Anita Das","phone":"918239512159","email":"anita.das92@vetmail.in","qualification":"Diploma in Animal Husbandry (DAH)","college":"Rajasthan University of Veterinary Sciences","licenseBody":"State Animal Husbandry Dept","registrationNumber":"PV/UK/2023/18058","village":"Kalan Nagar","city":"Surat","district":"Pune Rural","state":"Uttarakhand","stateCode":"UK","lat":30.20035,"lng":79.84011,"yearsExperience":24,"languages":["hi","en"],"available":true},{"id":"vet-uk189","type":"vet","name":"Dr. Neha Singh","phone":"917008749076","email":"neha.singh30@vetmail.in","qualification":"BVSc & AH","college":"OUAT Bhubaneswar","licenseBody":"Veterinary Council of India","registrationNumber":"VCI/UK/2012/34741","village":"Basantpur Nagar","city":"Madurai","district":"Patna","state":"Uttarakhand","stateCode":"UK","lat":32.23871,"lng":79.23536,"yearsExperience":20,"languages":["hi"],"available":true},{"id":"vet-uk190","type":"vet","name":"Dr. Gopal Reddy","phone":"918583969624","email":"gopal.reddy43@vetmail.in","qualification":"BVSc & AH, MVSc (Surgery)","college":"MAFSU Nagpur","licenseBody":"Veterinary Council of India","registrationNumber":"VCI/UK/2012/29794","village":"Sitapur Kalan","city":"Patna","district":"Raipur Rural","state":"Uttarakhand","stateCode":"UK","lat":30.0247,"lng":79.06418,"yearsExperience":23,"languages":["hi"],"available":true},{"id":"paravet-uk191","type":"paravet","name":"Dr. Dinesh Rao","phone":"918859792005","email":"dinesh.rao12@vetmail.in","qualification":"NDDB AI Technician + Animal Health","college":"Assam Agricultural University","licenseBody":"State Animal Husbandry Dept","registrationNumber":"PV/UK/2012/64717","village":"Basantpur Nagar","city":"Indore","district":"Ranchi","state":"Uttarakhand","stateCode":"UK","lat":31.39502,"lng":81.23552,"yearsExperience":12,"languages":["hi","en"],"available":true},{"id":"paravet-uk192","type":"paravet","name":"Lakshmi Kaur Devi","phone":"919584203353","email":"lakshmi.kaur50@vetmail.in","qualification":"Certificate in Livestock Health Worker (LHW)","college":"IVRI Bareilly","licenseBody":"State Animal Husbandry Dept","registrationNumber":"PV/UK/2021/22238","village":"Basantpur Nagar","city":"Ludhiana","district":"Surat District","state":"Uttarakhand","stateCode":"UK","lat":31.86295,"lng":79.49981,"yearsExperience":25,"languages":["hi"],"available":true},{"id":"paravet-uk193","type":"paravet","name":"Dr. Sunil Patel","phone":"917058491954","email":"sunil.patel21@vetmail.in","qualification":"NDDB AI Technician + Animal Health","college":"Kerala Veterinary University","licenseBody":"State Animal Husbandry Dept","registrationNumber":"PV/UK/2015/18805","village":"Chandpur","city":"Surat","district":"Bhubaneswar","state":"Uttarakhand","stateCode":"UK","lat":28.75057,"lng":78.53141,"yearsExperience":2,"languages":["hi"],"available":true},{"id":"paravet-uk194","type":"paravet","name":"Dr. Lakshmi Devi","phone":"919289597935","email":"lakshmi.devi12@vetmail.in","qualification":"BVSc & AH (Paravet extension)","college":"GADVASU Ludhiana","licenseBody":"State Animal Husbandry Dept","registrationNumber":"PV/UK/2021/25608","village":null,"city":"Agra","district":"Bhopal","state":"Uttarakhand","stateCode":"UK","lat":32.27958,"lng":80.50778,"yearsExperience":3,"languages":["hi","en"],"available":true},{"id":"vet-uk195","type":"vet","name":"Dr. Ashok Kumar","phone":"918183464962","email":"ashok.kumar68@vetmail.in","qualification":"BVSc & AH, MVSc (Surgery)","college":"TANUVAS Chennai","licenseBody":"Veterinary Council of India","registrationNumber":"VCI/UK/2011/10388","village":"Bajpur","city":"Kanpur","district":"Pune","state":"Uttarakhand","stateCode":"UK","lat":31.38246,"lng":77.76195,"yearsExperience":27,"languages":["hi","en"],"available":true},{"id":"paravet-uk196","type":"paravet","name":"Dr. Mohan Kumar","phone":"916794001416","email":"mohan.kumar20@vetmail.in","qualification":"NDDB AI Technician + Animal Health","college":"AAU Anand","licenseBody":"State Animal Husbandry Dept","registrationNumber":"PV/UK/2018/46632","village":"Lakhanpur Kalan","city":"Ranchi","district":"Nagpur Rural","state":"Uttarakhand","stateCode":"UK","lat":30.90245,"lng":79.3656,"yearsExperience":17,"languages":["hi"],"available":true},{"id":"vet-uk197","type":"vet","name":"Dr. Kavita Reddy","phone":"916496803595","email":"kavita.reddy34@vetmail.in","qualification":"BVSc & AH, MVSc (Surgery)","college":"IVRI Bareilly","licenseBody":"Veterinary Council of India","registrationNumber":"VCI/UK/2013/61115","village":null,"city":"Varanasi","district":"Nagpur Rural","state":"Uttarakhand","stateCode":"UK","lat":29.90094,"lng":79.51889,"yearsExperience":6,"languages":["hi","en"],"available":true},{"id":"paravet-uk198","type":"paravet","name":"Dr. Suman Gupta","phone":"918970236793","email":"suman.gupta90@vetmail.in","qualification":"BVSc & AH (Paravet extension)","college":"IVRI Bareilly","licenseBody":"State Animal Husbandry Dept","registrationNumber":"PV/UK/2014/73549","village":"Patti Khurd","city":"Kanpur","district":"Bhopal","state":"Uttarakhand","stateCode":"UK","lat":30.30388,"lng":79.7407,"yearsExperience":3,"languages":["hi","en"],"available":true},{"id":"vet-uk199","type":"vet","name":"Dr. Sunita Singh","phone":"919352049063","email":"sunita.singh38@vetmail.in","qualification":"BVSc & AH, MVSc","college":"GADVASU Ludhiana","licenseBody":"Veterinary Council of India","registrationNumber":"VCI/UK/2015/54832","village":"Kheri Nagar","city":"Kanpur","district":"Coimbatore Rural","state":"Uttarakhand","stateCode":"UK","lat":28.23595,"lng":79.23414,"yearsExperience":2,"languages":["hi","en"],"available":true},{"id":"paravet-uk200","type":"paravet","name":"Dr. Deepak Gupta","phone":"919463842826","email":"deepak.gupta50@vetmail.in","qualification":"NDDB AI Technician + Animal Health","college":"Assam Agricultural University","licenseBody":"State Animal Husbandry Dept","registrationNumber":"PV/UK/2018/22280","village":"Bharatpur Nagar","city":"Rajkot","district":"Pune District","state":"Uttarakhand","stateCode":"UK","lat":29.40029,"lng":76.82025,"yearsExperience":7,"languages":["hi","en"],"available":true},{"id":"paravet-uk201","type":"paravet","name":"Pradeep Mehta Devi","phone":"916243901338","email":"pradeep.mehta66@vetmail.in","qualification":"Diploma in Animal Husbandry (DAH)","college":"Rajasthan University of Veterinary Sciences","licenseBody":"State Animal Husbandry Dept","registrationNumber":"PV/UK/2017/18938","village":null,"city":"Patna","district":"Kanpur Rural","state":"Uttarakhand","stateCode":"UK","lat":29.29948,"lng":78.5454,"yearsExperience":27,"languages":["hi","en"],"available":true},{"id":"paravet-uk202","type":"paravet","name":"Dr. Vijay Nair","phone":"917767250680","email":"vijay.nair94@vetmail.in","qualification":"NDDB AI Technician + Animal Health","college":"Bihar Veterinary College","licenseBody":"State Animal Husbandry Dept","registrationNumber":"PV/UK/2016/86587","village":"Bajpur Khurd","city":"Coimbatore","district":"Bhopal","state":"Uttarakhand","stateCode":"UK","lat":30.41052,"lng":79.12096,"yearsExperience":5,"languages":["hi","en"],"available":true},{"id":"vet-uk203","type":"vet","name":"Dr. Pooja Joshi","phone":"918112981976","email":"pooja.joshi7@vetmail.in","qualification":"BVSc & AH, MVSc","college":"DUVASU Mathura","licenseBody":"Veterinary Council of India","registrationNumber":"VCI/UK/2015/38564","village":"Krishnapur Khurd","city":"Guwahati","district":"Agra District","state":"Uttarakhand","stateCode":"UK","lat":31.73206,"lng":77.79332,"yearsExperience":21,"languages":["hi","en"],"available":true},{"id":"vet-uk204","type":"vet","name":"Dr. Harish Nair","phone":"919808819084","email":"harish.nair83@vetmail.in","qualification":"BVSc & AH, MVSc (Medicine)","college":"KVAFSU Bidar","licenseBody":"Veterinary Council of India","registrationNumber":"VCI/UK/2023/33625","village":"Patti Khurd","city":"Agra","district":"Indore Rural","state":"Uttarakhand","stateCode":"UK","lat":28.67763,"lng":79.73311,"yearsExperience":17,"languages":["hi"],"available":true},{"id":"vet-uk205","type":"vet","name":"Dr. Suman Devi","phone":"919757724635","email":"suman.devi61@vetmail.in","qualification":"BVSc & AH, MVSc (Surgery)","college":"OUAT Bhubaneswar","licenseBody":"Veterinary Council of India","registrationNumber":"VCI/UK/2019/28312","village":null,"city":"Ahmedabad","district":"Mysuru Rural","state":"Uttarakhand","stateCode":"UK","lat":30.51593,"lng":79.05698,"yearsExperience":3,"languages":["hi","en"],"available":true},{"id":"paravet-uk206","type":"paravet","name":"Dr. Mohan Kumar","phone":"917032501079","email":"mohan.kumar35@vetmail.in","qualification":"Certificate in Livestock Health Worker (LHW)","college":"Assam Agricultural University","licenseBody":"State Animal Husbandry Dept","registrationNumber":"PV/UK/2022/75808","village":"Khurd","city":"Meerut","district":"Patna Rural","state":"Uttarakhand","stateCode":"UK","lat":28.38906,"lng":79.0642,"yearsExperience":5,"languages":["hi"],"available":true},{"id":"vet-uk207","type":"vet","name":"Dr. Harish Das","phone":"916350588338","email":"harish.das50@vetmail.in","qualification":"BVSc & AH, MVSc (Surgery)","college":"IVRI Bareilly","licenseBody":"Veterinary Council of India","registrationNumber":"VCI/UK/2012/16314","village":"Lakhanpur Nagar","city":"Kanpur","district":"Meerut District","state":"Uttarakhand","stateCode":"UK","lat":27.99996,"lng":80.68429,"yearsExperience":27,"languages":["hi"],"available":true},{"id":"vet-uk208","type":"vet","name":"Dr. Ravi Kaur","phone":"916813486261","email":"ravi.kaur39@vetmail.in","qualification":"BVSc & AH, MVSc","college":"GADVASU Ludhiana","licenseBody":"Veterinary Council of India","registrationNumber":"VCI/UK/2021/10665","village":null,"city":"Pune","district":"Kanpur","state":"Uttarakhand","stateCode":"UK","lat":28.56877,"lng":78.42472,"yearsExperience":27,"languages":["hi","en"],"available":true},{"id":"vet-uk209","type":"vet","name":"Ashok Gupta Devi","phone":"918718705547","email":"ashok.gupta95@vetmail.in","qualification":"BVSc & AH, MVSc (Surgery)","college":"IVRI Bareilly","licenseBody":"Veterinary Council of India","registrationNumber":"VCI/UK/2017/40111","village":"Sultanpur Kalan","city":"Guwahati","district":"Agra District","state":"Uttarakhand","stateCode":"UK","lat":32.17142,"lng":80.44059,"yearsExperience":28,"languages":["hi"],"available":true},